Job Id,Experience,Qualifications,Salary Range,location,Country,latitude,longitude,Work Type,Company Size,Job Posting Date,Preference,Job Title,Role,Job Portal,skills,Company
1.08984E+15,5 to 15 Years,M.Tech,59-99,Douglas,Isle of Man,54.2361,-4.5481,Intern,26801,24-04-2022,Female,Digital Marketing Specialist,Social Media Manager,Snagajob,"Social media platforms (e.g., Facebook, Twitter, Instagram) Content creation and scheduling Social media analytics and insights Community engagement Paid social advertising",Icahn Enterprises
3.98454E+14,2 to 12 Years,BCA,56-116,Ashgabat,Turkmenistan,38.9697,59.5563,Intern,100340,19-12-2022,Female,Web Developer,Frontend Web Developer,Idealist,"HTML, CSS, JavaScript Frontend frameworks (e.g., React, Angular) User experience (UX)",PNC Financial Services Group
4.8164E+14,0 to 12 Years,PhD,61-104,Macao,"Macao SAR, China",22.1987,113.5439,Temporary,84525,14-09-2022,Male,Operations Manager,Quality Control Manager,Jobs2Careers,"Quality control processes and methodologies Statistical process control (SPC) Root cause analysis and corrective action Quality management systems (e.g., ISO 9001) Compliance and regulatory knowledge",United Services Automobile Assn.
6.88193E+14,4 to 11 Years,PhD,65-91,Porto-Novo,Benin,9.3077,2.3158,Full-Time,129896,25-02-2023,Female,Network Engineer,Wireless Network Engineer,FlexJobs,Wireless network design and architecture Wi-Fi standards and protocols RF (Radio Frequency) planning and optimization Wireless security protocols Troubleshooting wireless network issues,Hess
1.17058E+14,1 to 12 Years,MBA,64-87,Santiago,Chile,-35.6751,-71.5429,Intern,53944,11-10-2022,Female,Event Manager,Conference Manager,Jobs2Careers,Event planning Conference logistics Budget management Vendor coordination Marketing and promotion Client relations,Cairn Energy
1.16831E+14,4 to 12 Years,MCA,59-93,Brussels,Belgium,50.5039,4.4699,Full-Time,23196,25-07-2023,Male,Software Tester,Quality Assurance Analyst,Snagajob,"Quality assurance processes Testing methodologies (e.g., manual, automated) Bug tracking and reporting Test case development Regression testing",Adani Ports and Special Economic Zone
1.29217E+15,3 to 15 Years,PhD,63-103,George Town,Cayman Islands,19.3133,-81.2546,Temporary,26119,10-04-2023,Both,Teacher,Classroom Teacher,FlexJobs,Teaching pedagogy Classroom management Curriculum development Student assessment Differentiated instruction,FedEx
1.49878E+15,2 to 8 Years,M.Com,65-102,SÃƒÂ£o TomÃƒÂ©,Sao Tome and Principe,0.1864,6.6131,Contract,40558,20-09-2022,Female,UX/UI Designer,User Interface Designer,Indeed,"UI design principles and best practices Graphic design tools (e.g., Adobe Photoshop, Illustrator) Typography and color theory Visual design and layout Responsive design",Ryder System
1.68029E+15,2 to 9 Years,BBA,65-102,Male,Maldives,3.2028,73.2207,Temporary,105343,19-02-2022,Female,UX/UI Designer,Interaction Designer,Indeed,Interaction design principles User behavior and psychology Wireframing and prototyping tools Animation and micro-interaction design Collaborative design processes,Zee Entertainment Enterprises
2.55628E+14,1 to 10 Years,BBA,60-80,Saint John's,Antigua and Barbuda,17.0608,-61.7964,Full-Time,102069,13-05-2022,Both,Wedding Planner,Wedding Consultant,Stack Overflow Jobs,Wedding planning Vendor coordination Event management,CSX
2.69696E+15,3 to 10 Years,BCA,57-104,Manama,Bahrain,26.0667,50.5577,Contract,130338,01-07-2023,Female,QA Analyst,Performance Testing Specialist,Glassdoor,Performance testing Load testing Stress testing Test scenarios Performance monitoring Benchmarking Performance analysis,McDonald's
1.91412E+15,3 to 15 Years,MCA,65-122,Kingston,Jamaica,18.1096,-77.2975,Part-Time,79071,17-01-2022,Both,Mechanical Engineer,Mechanical Design Engineer,Stack Overflow Jobs,"Mechanical engineering CAD software (e.g., SolidWorks, AutoCAD) Finite element analysis Product development Prototyping",ThyssenKrupp AG
2.90762E+14,1 to 8 Years,B.Com,56-86,Banjul,Gambia,13.4432,-15.3101,Temporary,127900,24-05-2022,Female,Network Administrator,Network Security Analyst,FlexJobs,Network security protocols Intrusion detection and prevention Security incident response Firewall administration Vulnerability assessment Security policies and procedures Log analysis Ethical hacking Problem-solving Communication skills Attention to detail,EnLink Midstream
1.62754E+15,1 to 9 Years,MCA,57-98,Damascus,Syrian Arab Republic,34.8021,38.9968,Full-Time,92128,01-03-2022,Male,Account Manager,Sales Account Manager,USAJOBS,Account management Sales strategy Negotiation and closing skills,NGL Energy Partners
2.69197E+15,4 to 12 Years,M.Com,65-100,Sanaa,Yemen,15.5527,48.5164,Part-Time,92028,25-08-2023,Male,Brand Manager,Product Brand Manager,SimplyHired,Product branding and marketing Product lifecycle management Cross-functional team collaboration Product launch planning Market segmentation and targeting,Bayer AG
2.82389E+15,5 to 14 Years,M.Tech,60-83,San Marino,San Marino,43.9424,12.4578,Part-Time,49100,19-04-2022,Male,Social Worker,School Social Worker,Glassdoor,School social work principles Student assessment and intervention Special education laws Individualized education plans (IEPs) Crisis management Collaboration with educators Family engagement Advocacy Empathy and communication Documentation Cultural competence Licensing and certification,Deere
7.69021E+13,0 to 11 Years,BA,55-117,Papeete,French Polynesia,-17.6797,-149.4068,Full-Time,29318,18-05-2022,Male,Social Media Coordinator,Content Creator,Jobs2Careers,"Content creation (e.g., writing, editing, graphic design, video production) Content marketing Social media management SEO optimization Creative storytelling Audience engagement Analytics and reporting Adaptability Communication skills Creativity",Mondelez International
4.07981E+14,5 to 9 Years,PhD,65-128,Kinshasa,Democratic Republic Of Congo,-4.0383,21.7587,Temporary,48199,27-07-2022,Female,HR Generalist,HR Coordinator,Snagajob,Human resources Recruitment Employee onboarding HRIS (HR Information Systems) Record keeping Communication skills,KKR
9.40776E+14,0 to 15 Years,B.Tech,62-120,Baku,Azerbaijan,40.1431,47.5769,Full-Time,64351,13-02-2022,Both,Legal Assistant,Legal Secretary,The Muse,"Legal administrative tasks Document management Calendar and docketing Transcription File organization Communication with clients and courts Knowledge of legal terminology Attention to detail Multitasking Computer skills (e.g., MS Office)",NGL Energy Partners
1.52431E+15,0 to 10 Years,BCA,64-98,Funafuti,Tuvalu,-7.1095,177.6493,Intern,118041,03-09-2023,Both,Nurse Practitioner,Family Nurse Practitioner,Dice,Family medicine Health assessment Pediatric care Chronic disease management Patient education,EasyJet
2.50813E+15,1 to 8 Years,M.Tech,58-116,Asmara,Eritrea,15.1794,39.7823,Intern,40723,26-08-2023,Male,Account Director,Account Strategist,USAJOBS,Account management Client relations Marketing strategies Campaign optimization Data analysis Communication skills,Otis Worldwide
2.80873E+15,2 to 14 Years,PhD,62-124,Tegucigalpa,Honduras,15.199,-86.2419,Temporary,127385,03-07-2022,Both,Software Engineer,Backend Developer,CareerBuilder,"Proficiency in one or more backend programming languages (e.g., Java, Python, Node.js, Ruby) API development Database management (SQL or NoSQL) Server management and deployment Security best practices Knowledge of web frameworks (e.g., Express, Django)",Oil Search
2.27736E+15,3 to 9 Years,MBA,60-104,Road Town,British Virgin Islands,18.4207,-64.6399,Temporary,28043,02-08-2023,Both,Purchasing Agent,Supply Chain Coordinator,Jobs2Careers,Supply chain logistics Inventory management Communication skills Problem-solving Vendor coordination,HCL Technologies
1.50462E+15,5 to 15 Years,M.Tech,59-88,Budapest,Hungary,47.1625,19.5033,Contract,105370,28-11-2022,Male,Sales Consultant,B2B Sales Consultant,Jobs2Careers,B2B sales Business-to-business sales strategies Lead generation Sales negotiations Client relationship building Market research,Associated British Foods
2.42566E+15,4 to 15 Years,BA,64-100,Banjul,Gambia,13.4432,-15.3101,Part-Time,51537,23-01-2023,Male,Civil Engineer,Structural Engineer,Internships.com,"Structural engineering principles Structural analysis and design software (e.g., AutoCAD, SAP2000) Building codes and standards Project management Structural integrity assessment",Xcel Energy
1.36146E+15,0 to 12 Years,M.Com,63-86,Funafuti,Tuvalu,-7.1095,177.6493,Intern,93670,21-01-2023,Female,Network Security Specialist,Security Operations Center (SOC) Analyst,Indeed,"SOC operations Security incident response Threat detection Log analysis Security tools (e.g., IDS/IPS) Security alerts triage",Deutsche Post DHL Group
1.35533E+15,2 to 10 Years,BBA,65-119,AsunciÃƒÂ³n,Paraguay,-23.442503,-58.443832,Intern,56930,06-06-2023,Female,UI Developer,Front-End Developer,Idealist,"Front-end web development HTML, CSS, JavaScript Responsive design Web performance optimization Cross-browser compatibility",Bodycote
2.02064E+15,4 to 8 Years,BA,55-83,Amman,Jordan,30.5852,36.2384,Intern,64185,19-03-2023,Female,Financial Planner,Tax Planner,FlexJobs,Tax planning strategies Tax law knowledge Financial analysis Retirement planning Estate planning Client relationship management Tax optimization Communication skills Attention to detail Tax software proficiency Regulatory compliance,Old Republic International
4.19222E+14,3 to 8 Years,BA,65-115,Santiago,Chile,-35.6751,-71.5429,Part-Time,101834,01-06-2023,Both,Event Planner,Event Coordinator,USAJOBS,Event planning Vendor coordination Budget management Marketing and promotion Logistics,United Airlines Holdings
6.19201E+14,1 to 14 Years,M.Com,57-121,Abuja,Nigeria,9.082,8.6753,Contract,130962,05-02-2022,Female,Psychologist,Clinical Psychologist,Jobs2Careers,Clinical psychology Counseling skills Assessment tools Diagnostic skills Empathy and listening skills,Tenet Healthcare
2.06377E+15,1 to 13 Years,B.Com,65-82,Tripoli,Libya,26.3351,17.2283,Contract,38044,27-03-2023,Male,Electrical Designer,Electrical Engineer,Indeed,Electrical engineering Circuit design Electronics AutoCAD proficiency Problem-solving,Regions Financial
1.88909E+15,0 to 8 Years,M.Com,62-130,Canberra,Australia,-25.2744,133.7751,Temporary,27725,02-11-2022,Both,Electrical Designer,Lighting Designer,Idealist,Lighting design Architectural lighting Lighting software proficiency Creative lighting concepts Technical knowledge,CBRE Group
9.81852E+14,3 to 10 Years,M.Com,58-129,Noumea,New Caledonia,-20.9043,165.618,Part-Time,35273,31-08-2023,Female,Data Analyst,Business Intelligence Analyst,Idealist,"Data analysis and visualization tools (e.g., Tableau, Power BI) SQL and database querying Business intelligence concepts Data modeling and reporting Strong analytical and problem-solving skills Data-driven decision-making","Wyndham Hotels & Resorts, Inc."
3.02321E+15,0 to 12 Years,PhD,60-89,Muscat,Oman,21.4735,55.9754,Intern,103693,06-02-2022,Male,Technical Writer,Content Writer,USAJOBS,Writing skills Content creation SEO knowledge Research skills Grammar and proofreading,Corning
4.87917E+14,0 to 8 Years,BA,64-103,Gaza,West Bank and Gaza,31.9522,35.2332,Temporary,29884,25-02-2022,Female,UX/UI Designer,User Interface Designer,Internships.com,"UI design principles and best practices Graphic design tools (e.g., Adobe Photoshop, Illustrator) Typography and color theory Visual design and layout Responsive design",Leidos Holdings
1.70379E+15,4 to 12 Years,M.Com,57-100,Honiara,Solomon Islands,-9.6457,160.1562,Part-Time,104700,15-01-2023,Male,Tax Consultant,Personal Tax Consultant,Snagajob,Tax law knowledge Individual tax planning Tax return preparation Tax deductions and credits Tax compliance IRS regulations Client relationship management Communication skills Attention to detail Tax software proficiency,Divi's Laboratories
2.81208E+15,5 to 10 Years,MBA,58-81,SÃƒÂ£o TomÃƒÂ©,Sao Tome and Principe,0.1864,6.6131,Full-Time,47107,09-02-2023,Both,Software Tester,Automation Tester,Internships.com,"Test automation tools (e.g., Selenium, Appium) Scripting languages (e.g., Python, Java) Test framework development Continuous integration tools Test data management",Tata Consumer Products
1.4627E+15,5 to 14 Years,BCA,56-109,Yamoussoukro,Cote d'Ivoire,7.54,-5.5471,Intern,61246,15-06-2023,Male,Account Executive,Sales Account Executive,Internships.com,Sales strategies and tactics Account management Relationship building Sales forecasting Industry and product knowledge,Fannie Mae
2.14925E+15,2 to 13 Years,BCA,55-121,Quito,Ecuador,-1.8312,-78.1834,Part-Time,43665,30-03-2022,Both,Systems Administrator,IT Support Specialist,SimplyHired,Technical troubleshooting Hardware and software support Customer service Problem-solving Communication,Spotify Technology S.A.
1.19171E+15,4 to 9 Years,BA,62-129,Charlotte Amalie,Virgin Islands (U.S.),18.3358,-64.8963,Intern,125427,30-05-2022,Female,Account Director,Account Strategist,SimplyHired,Account management Client relations Marketing strategies Campaign optimization Data analysis Communication skills,Bajaj Auto
3.85984E+14,1 to 15 Years,BBA,56-82,Yaounde,Cameroon,7.3697,12.3547,Temporary,55648,05-08-2023,Female,Database Administrator,Database Developer,CareerBuilder,"Database design and development SQL and database querying Data modeling Programming languages (e.g., Java, Python) Data security and privacy regulations knowledge",News Corp.
1.62447E+15,1 to 15 Years,B.Tech,59-80,Moroni,Comoros,-11.6455,43.3333,Intern,107738,19-02-2022,Both,Research Analyst,Social Science Researcher,Idealist,"Social science research methods Qualitative and quantitative data analysis Survey design and implementation Ethnographic research Interviewing skills Research ethics Statistical software (e.g., Stata, NVivo) Report writing Communication skills Critical thinking Empathy",KKR
1.37351E+15,3 to 9 Years,B.Tech,56-109,Madrid,Spain,40.4637,-3.7492,Temporary,91636,29-05-2023,Male,Data Entry Clerk,Record Keeper,Jobs2Careers,Records management Data entry and retrieval Attention to detail,Arconic
2.82825E+15,5 to 14 Years,MCA,64-130,Belmopan,Belize,17.1899,-88.4976,Intern,43166,23-04-2022,Female,Registered Nurse,Staff Nurse,Idealist,Nursing care Patient assessment Medical knowledge,"Revlon, Inc."
2.28317E+15,3 to 8 Years,BA,59-89,Valletta,Malta,35.9375,14.3754,Temporary,99455,05-01-2022,Female,Tax Consultant,International Tax Consultant,CareerBuilder,International tax law knowledge Transfer pricing Cross-border tax planning Tax treaties and agreements Foreign tax credits International tax compliance Transfer pricing documentation Multinational tax strategies Client relationship management Communication skills Tax software proficiency,Dow
6.14048E+13,5 to 10 Years,M.Com,62-127,Yaounde,Cameroon,7.3697,12.3547,Temporary,65648,24-01-2023,Female,Speech Therapist,Speech Pathologist,Internships.com,Speech pathology Articulation therapy Language disorders Speech assessment Therapy planning Communication skills,Philip Morris International
1.43808E+14,4 to 8 Years,B.Com,55-105,Yaounde,Cameroon,7.3697,12.3547,Contract,65183,11-05-2023,Female,Sales Manager,Regional Sales Director,SimplyHired,Sales strategy development Territory management Sales team leadership,Enterprise Products Partners
9.72331E+14,4 to 10 Years,BCA,59-123,Brazzaville,Republic Of Congo,-0.228,15.8277,Full-Time,73840,22-12-2022,Both,Social Worker,Mental Health Counselor,Monster,Counseling techniques Psychotherapy Mental health assessment Treatment planning Crisis intervention Ethical standards Empathy and active listening Cultural competence Documentation Communication skills Self-care Licensing and certification,Bayer AG
8.3249E+14,5 to 12 Years,PhD,59-114,Cockburn Town,Turks and Caicos Islands,21.694,-71.7979,Part-Time,25713,11-01-2023,Female,Nurse Practitioner,Family Nurse Practitioner,The Muse,Family medicine Health assessment Pediatric care Chronic disease management Patient education,Carrier Global
1.8892E+15,0 to 13 Years,B.Com,64-92,Phnom Penh,Cambodia,12.5657,104.9909,Temporary,14771,06-05-2023,Male,Landscape Architect,Urban Planner,Monster,Urban design and planning Zoning regulations GIS and mapping tools,UnitedHealth Group
2.90488E+15,4 to 14 Years,B.Tech,63-109,Yerevan,Armenia,40.0691,45.0382,Intern,48875,07-03-2023,Female,UX Researcher,User Researcher,FlexJobs,User research methods Usability testing Data analysis and interpretation,UGI
2.16307E+15,4 to 11 Years,BA,57-125,Hagatna,Guam,13.4443,144.7937,Temporary,18334,13-09-2023,Male,Account Manager,Sales Account Manager,FlexJobs,Account management Sales strategy Negotiation and closing skills,Disney+
8.19508E+14,2 to 10 Years,B.Com,65-88,Castries,St. Lucia,13.9094,-60.9789,Part-Time,45782,28-09-2022,Both,Investment Banker,Financial Analyst,USAJOBS,Financial analysis Data analysis Financial modeling,General Electric
4.63605E+14,2 to 9 Years,BBA,65-117,Brazzaville,Republic Of Congo,-0.228,15.8277,Intern,58759,08-04-2023,Female,IT Support Specialist,Desktop Support Technician,USAJOBS,"Desktop hardware and software troubleshooting Operating system expertise (e.g., Windows, macOS) Remote desktop support Hardware and software upgrades Customer service skills",Brighthouse Financial
9.1461E+14,3 to 12 Years,BA,61-111,Belmopan,Belize,17.1899,-88.4976,Temporary,40875,22-08-2023,Male,Art Director,Art Curator,Internships.com,Art history and knowledge Art curation and exhibition planning Collections management Art market trends Cultural awareness,Deutsche Pfandbriefbank AG
4.01561E+14,5 to 12 Years,PhD,57-125,New Delhi,India,20.5937,78.9629,Full-Time,42159,28-09-2022,Female,Account Executive,Sales Account Executive,Internships.com,Sales strategies and tactics Account management Relationship building Sales forecasting Industry and product knowledge,GlaxoSmithKline
2.0168E+15,1 to 11 Years,BCA,65-121,Islamabad,Pakistan,30.3753,69.3451,Intern,54212,28-02-2023,Both,Project Manager,Agile Project Manager,The Muse,"Agile methodologies Scrum or Kanban Team collaboration Agile tools (e.g., Jira)",Hindalco Industries
1.69892E+15,4 to 13 Years,MCA,65-84,Bandar Seri Begawan,Brunei,4.5353,114.7277,Full-Time,110983,20-01-2023,Male,Civil Engineer,Structural Engineer,SimplyHired,"Structural engineering principles Structural analysis and design software (e.g., AutoCAD, SAP2000) Building codes and standards Project management Structural integrity assessment",Lincoln National
1.1199E+15,4 to 13 Years,MBA,59-101,Gaza,West Bank and Gaza,31.9522,35.2332,Full-Time,22971,11-03-2022,Male,Procurement Manager,Procurement Analyst,Idealist,Procurement processes Vendor assessment Contract negotiation Purchase order management Spend analysis Market research Supplier relationship management Data analysis Problem-solving Attention to detail Communication skills Financial acumen,Nestle India
2.90532E+15,3 to 10 Years,B.Com,63-114,Roseau,Dominica,15.4149,-61.3705,Intern,87873,09-11-2022,Female,Substance Abuse Counselor,Family Counselor,Monster,Family counseling Marriage and family therapy Conflict resolution skills,Electrocomponents
2.85346E+15,0 to 9 Years,B.Tech,56-125,London,UK,55.3781,-3.436,Intern,58034,03-08-2022,Male,Data Engineer,Data Architect,Indeed,Data architecture design Database management systems Data modeling,Equitable Holdings
1.85301E+15,3 to 9 Years,MCA,64-83,Kabul,Afghanistan,33.9391,67.71,Part-Time,128742,21-04-2022,Male,Sales Manager,Regional Sales Director,Jobs2Careers,Sales strategy development Territory management Sales team leadership,Bajaj Finserv
7.51362E+14,5 to 8 Years,BBA,58-88,Ulaanbaatar,Mongolia,46.8625,103.8467,Contract,24654,11-05-2022,Female,Supply Chain Analyst,Logistics Analyst,The Muse,Supply chain analysis Data analytics Inventory management Transportation planning Problem-solving,PulteGroup
1.5413E+15,5 to 14 Years,BA,56-128,San Marino,San Marino,43.9424,12.4578,Part-Time,39267,17-08-2023,Both,UX/UI Designer,User Interface Designer,The Muse,"UI design principles and best practices Graphic design tools (e.g., Adobe Photoshop, Illustrator) Typography and color theory Visual design and layout Responsive design",Stockland Corporation
7.47039E+14,2 to 12 Years,BA,65-88,Ulaanbaatar,Mongolia,46.8625,103.8467,Contract,92865,18-02-2022,Male,Software Tester,Quality Assurance Analyst,USAJOBS,"Quality assurance processes Testing methodologies (e.g., manual, automated) Bug tracking and reporting Test case development Regression testing",Group 1 Automotive
3.07187E+15,1 to 9 Years,MCA,64-82,Bratislava,Slovak Republic,48.669,19.699,Contract,32898,29-06-2023,Male,Software Tester,Quality Assurance Analyst,FlexJobs,"Quality assurance processes Testing methodologies (e.g., manual, automated) Bug tracking and reporting Test case development Regression testing",Altria Group
1.07138E+15,4 to 8 Years,PhD,56-101,Gaborone,Botswana,-22.3285,24.6849,Contract,49909,10-08-2023,Male,Sales Representative,Inside Sales Representative,Idealist,"Sales prospecting and lead generation Sales presentation and communication CRM software (e.g., Salesforce) Sales negotiation and closing techniques Product knowledge Relationship building",McDonald's
2.52326E+15,4 to 11 Years,B.Com,63-102,Marigot,St. Martin (French part),18.0708,-63.0501,Contract,14944,08-11-2022,Female,Key Account Manager,Strategic Account Manager,Idealist,Account management Client relationship Sales strategy Business development Negotiation skills,Republic Services
4.33364E+14,2 to 15 Years,BBA,55-121,Bandar Seri Begawan,Brunei,4.5353,114.7277,Intern,129177,12-05-2022,Female,Network Administrator,Network Security Analyst,SimplyHired,Network security protocols Intrusion detection and prevention Security incident response Firewall administration Vulnerability assessment Security policies and procedures Log analysis Ethical hacking Problem-solving Communication skills Attention to detail,Republic Services
7.08801E+14,4 to 11 Years,PhD,61-105,Riyadh,Saudi Arabia,23.8859,45.0792,Intern,72619,08-05-2023,Male,Purchasing Agent,Inventory Manager,Jobs2Careers,Inventory control Demand forecasting Supply chain management Data analysis Warehouse management,Continental AG
2.47266E+15,1 to 14 Years,BCA,56-93,Dhaka,Bangladesh,23.685,90.3563,Contract,112909,24-01-2023,Female,QA Analyst,Automation Test Engineer,Internships.com,"Test automation Test framework development Continuous integration Scripting languages (e.g., Python) Test reporting Code review",Tesla
3.06965E+15,4 to 9 Years,BA,57-83,Kuala Lumpur,Malaysia,4.2105,101.9758,Full-Time,61676,21-04-2022,Female,Sales Representative,Inside Sales Representative,Idealist,"Sales prospecting and lead generation Sales presentation and communication CRM software (e.g., Salesforce) Sales negotiation and closing techniques Product knowledge Relationship building",Henkel AG & Co. KGaA
3.01975E+15,1 to 11 Years,BBA,63-104,Bishkek,Kyrgyz Republic,41.2044,74.7661,Intern,106271,24-06-2023,Both,Environmental Consultant,Sustainability Consultant,ZipRecruiter,Sustainability consulting Sustainability assessments Sustainable practices Green building standards Environmental policies Client communication,WESCO International
2.93225E+15,5 to 13 Years,BBA,59-113,Sri Jayawardenepura Kotte,Sri Lanka,7.8731,80.7718,Temporary,36167,10-07-2023,Male,Electrical Engineer,Electronics Hardware Engineer,Stack Overflow Jobs,Electronics design PCB layout Embedded systems Circuit analysis Troubleshooting,Unilever
1.10135E+15,0 to 9 Years,M.Tech,65-107,Mexico City,Mexico,23.6345,-102.5528,Temporary,117330,09-06-2022,Female,Systems Engineer,Systems Integration Specialist,Snagajob,Systems integration Integration architecture Data mapping Middleware technologies API integration System testing Troubleshooting,NRG Energy
2.4025E+15,5 to 11 Years,BCA,55-128,Guatemala City,Guatemala,15.7835,-90.2308,Full-Time,122985,11-08-2023,Female,Electrical Designer,Electrical Engineer,The Muse,Electrical engineering Circuit design Electronics AutoCAD proficiency Problem-solving,"Revlon, Inc."
2.41781E+15,2 to 13 Years,B.Tech,58-115,Quito,Ecuador,-1.8312,-78.1834,Part-Time,103289,09-04-2023,Both,Litigation Attorney,Trial Attorney,SimplyHired,Litigation Legal research Courtroom representation Case preparation Client counseling Legal writing,Constellation Brands
1.57649E+15,2 to 9 Years,BBA,60-113,Moscow,Russia,61.524,105.3188,Contract,42479,21-04-2022,Male,Network Engineer,Network Security Engineer,Dice,Network security protocols and technologies Firewalls and intrusion detection systems Vulnerability assessment and penetration testing Security policy development and enforcement Incident response and recovery,Interpublic Group
1.63906E+15,2 to 12 Years,MBA,57-83,Riga,Latvia,56.8796,24.6032,Temporary,25355,29-05-2022,Female,Psychologist,Research Psychologist,LinkedIn,Research methodology Data analysis Psychological studies Writing research reports Critical thinking,Auto-Owners Insurance
3.04789E+15,2 to 12 Years,B.Tech,64-103,Berlin,Germany,51.1657,10.4515,Part-Time,87550,20-04-2023,Male,Art Teacher,Art Education Coordinator,CareerBuilder,Art education curriculum Program development Teacher training Communication skills Artistic expertise,ODP
9.55022E+14,1 to 8 Years,MCA,58-83,Djibouti (city),Djibouti,11.8251,42.5903,Part-Time,38678,25-02-2022,Female,Human Resources Manager,Talent Acquisition Manager,USAJOBS,Talent sourcing Interviewing Onboarding Recruitment strategies HR software,Titan Company
3.40716E+14,1 to 12 Years,B.Com,61-106,Paramaribo,Suriname,3.9193,-56.0278,Contract,61963,08-06-2023,Male,Teacher,Classroom Teacher,CareerBuilder,Teaching pedagogy Classroom management Curriculum development Student assessment Differentiated instruction,Farmers Insurance Exchange
8.23741E+14,1 to 15 Years,MCA,55-126,City of Port Louis,Mauritius,-20.3484,57.5522,Contract,83361,13-11-2022,Both,Inventory Analyst,Inventory Control Specialist,The Muse,Inventory management Stock control Demand forecasting Inventory tracking systems Supply chain coordination Problem-solving skills,Publix Super Markets
1.08141E+15,4 to 13 Years,M.Com,58-121,Bamako,Mali,17.5707,-3.9962,Contract,53541,04-11-2022,Male,Legal Counsel,Corporate Attorney,Glassdoor,Corporate law and regulations Contract drafting and negotiation Legal research and analysis Risk management Excellent communication and negotiation skills,Otis Worldwide
3.03806E+15,4 to 14 Years,MCA,58-81,Papeete,French Polynesia,-17.6797,-149.4068,Part-Time,28546,19-08-2022,Both,Database Developer,SQL Database Developer,Dice,SQL (Structured Query Language) Database design Query optimization Data modeling Database maintenance Problem-solving skills,US Foods Holding
9.29231E+14,1 to 9 Years,B.Tech,59-108,Brussels,Belgium,50.5039,4.4699,Temporary,131928,15-06-2023,Female,Procurement Specialist,Procurement Manager,SimplyHired,Procurement strategies Supplier management Negotiation Cost analysis Supply chain management,Croda International
2.21335E+15,5 to 15 Years,B.Com,63-85,San Jose,Costa Rica,9.7489,-83.7534,Intern,31092,15-11-2022,Male,Systems Analyst,IT Analyst,Indeed,IT systems analysis Troubleshooting IT support and documentation,Travelers
1.15603E+15,4 to 11 Years,M.Com,55-118,Jakarta,Indonesia,-0.7893,113.9213,Intern,39646,25-04-2023,Both,Nurse Practitioner,Acute Care Nurse Practitioner,Internships.com,Acute care nursing Emergency medicine Critical care Diagnostic tests Treatment planning,Textron
2.14134E+15,0 to 14 Years,M.Com,62-129,Suva,Fiji,-17.7134,178.065,Intern,71394,18-03-2022,Male,Account Executive,Key Account Executive,Internships.com,Key account management Sales strategy development Negotiation and closing skills Relationship building Industry and market knowledge,Ulta Beauty
1.34379E+15,0 to 12 Years,MBA,61-94,Amman,Jordan,30.5852,36.2384,Temporary,70396,09-06-2023,Female,Copywriter,Creative Copywriter,ZipRecruiter,Creative writing Copywriting Advertising copy Content creation Brand storytelling Marketing campaigns Proofreading and editing,American Electric Power
4.81691E+14,0 to 13 Years,BCA,64-113,Kigali,Rwanda,-1.9403,29.8739,Intern,97571,23-11-2022,Male,Procurement Specialist,Procurement Manager,Internships.com,Procurement strategies Supplier management Negotiation Cost analysis Supply chain management,UnitedHealth Group
2.31011E+15,1 to 8 Years,MCA,59-105,Juba,South Sudan,6.877,31.307,Temporary,84264,27-01-2022,Female,Digital Marketing Specialist,SEO Specialist,Glassdoor,"Search engine algorithms and ranking factors Keyword research and analysis On-page and off-page SEO optimization SEO tools (e.g., Google Analytics, SEMrush) SEO content strategy",Tencent Holdings
1.85464E+13,5 to 13 Years,M.Tech,64-86,Manama,Bahrain,26.0667,50.5577,Contract,50052,27-01-2023,Male,UI Developer,Front-End Developer,The Muse,"Front-end web development HTML, CSS, JavaScript Responsive design Web performance optimization Cross-browser compatibility",Otis Worldwide
2.56441E+15,4 to 9 Years,M.Tech,61-116,Vientiane,Lao PDR,19.8563,102.4955,Contract,72807,01-07-2022,Male,Event Planner,Event Coordinator,The Muse,Event planning Vendor coordination Budget management Marketing and promotion Logistics,Tullow Oil
4.36825E+14,1 to 10 Years,BA,62-94,Castries,St. Lucia,13.9094,-60.9789,Full-Time,130966,27-11-2022,Female,Sales Representative,Account Executive,Dice,Sales strategy and planning Account management Customer relationship management Solution selling Sales forecasting Contract negotiation Sales metrics and reporting,Qualcomm
1.69841E+15,0 to 10 Years,B.Tech,64-89,Gaborone,Botswana,-22.3285,24.6849,Contract,102861,23-11-2022,Female,Sales Consultant,B2B Sales Consultant,SimplyHired,B2B sales Business-to-business sales strategies Lead generation Sales negotiations Client relationship building Market research,AutoNation
2.75871E+15,3 to 8 Years,B.Tech,59-94,George Town,Cayman Islands,19.3133,-81.2546,Part-Time,86718,22-08-2023,Male,Database Administrator,Database Developer,SimplyHired,"Database design and development SQL and database querying Data modeling Programming languages (e.g., Java, Python) Data security and privacy regulations knowledge",Peter Kiewit Sons
1.28052E+15,4 to 8 Years,PhD,56-95,Quito,Ecuador,-1.8312,-78.1834,Contract,120930,14-01-2023,Both,Project Manager,Construction Project Manager,Idealist,Construction management Budgeting Contract negotiation Safety regulations,General Mills
5.9364E+14,5 to 15 Years,M.Tech,60-112,Tokyo,Japan,36.2048,138.2529,Full-Time,25307,23-02-2023,Male,Technical Writer,Instructional Designer,Internships.com,Instructional design eLearning tools Curriculum development Multimedia design Learning theory knowledge,PNC Financial Services Group
2.08621E+15,4 to 15 Years,BCA,61-122,Male,Maldives,3.2028,73.2207,Part-Time,50004,29-11-2022,Both,Content Writer,Content Strategist,Dice,Content strategy Content planning SEO optimization Content marketing Analytics,Farmers Insurance Exchange
7.36772E+14,2 to 14 Years,MBA,65-107,Sucre (de jure),Bolivia,-16.2902,-63.5887,Intern,106859,30-01-2022,Male,HR Coordinator,Training Coordinator,ZipRecruiter,Training program coordination Training material development Learning management systems,CIMIC Group
1.61507E+15,3 to 9 Years,BCA,65-83,Brussels,Belgium,50.5039,4.4699,Temporary,15831,08-05-2022,Female,HR Coordinator,Recruitment Coordinator,Internships.com,Recruitment process Candidate screening Applicant tracking systems Communication,Alibaba Health Information Technology
1.83424E+14,3 to 13 Years,BCA,65-113,Banjul,Gambia,13.4432,-15.3101,Part-Time,56816,14-01-2022,Female,Business Development Manager,Strategic Partnerships Manager,Glassdoor,Partnership development Negotiation and collaboration Business development,Tenet Healthcare
1.53653E+15,0 to 12 Years,B.Com,63-96,London,UK,55.3781,-3.436,Intern,43783,22-02-2022,Male,Java Developer,Java Backend Developer,LinkedIn,"Backend development RESTful APIs Database integration Java EE (Enterprise Edition) Performance optimization Version control (e.g., Git)",Exelon
2.48635E+15,4 to 8 Years,MBA,64-124,Manila,Philippines,12.879721,121.774017,Part-Time,32405,15-03-2023,Both,Sales Manager,Sales Team Leader,Jobs2Careers,Sales leadership Team management Sales strategy and planning,SAP SE
1.86874E+15,2 to 12 Years,M.Tech,63-130,Luxembourg,Luxembourg,49.8153,6.1296,Temporary,88586,20-05-2023,Male,Speech Therapist,Pediatric Speech Therapist,USAJOBS,Pediatric speech therapy Speech-language assessment Individualized treatment plans Child development Communication skills,IBM (International Business Machines Corporation)
2.78218E+15,2 to 12 Years,BBA,63-113,Castries,St. Lucia,13.9094,-60.9789,Intern,12938,04-01-2022,Male,Database Developer,NoSQL Database Engineer,Dice,"NoSQL databases (e.g., MongoDB, Cassandra) Data modeling Data migration Performance tuning Scalability Distributed systems",Intercontinental Exchange
1.84619E+15,5 to 10 Years,BA,56-129,AsunciÃƒÂ³n,Paraguay,-23.442503,-58.443832,Intern,28874,17-06-2023,Both,Supply Chain Manager,Demand Planner,Idealist,Demand forecasting Inventory management Data analysis Sales and operations planning (S&OP) ERP software proficiency,Power Grid Corporation of India
2.4774E+15,4 to 14 Years,B.Com,60-107,Praia,Cabo Verde,16.5388,-23.0418,Intern,88454,19-01-2023,Male,Wedding Planner,Wedding Designer,Jobs2Careers,Wedding design concepts Decor selection and arrangement Creative flair,Consolidated Edison
1.73139E+15,0 to 13 Years,PhD,60-100,Port Moresby,Papua New Guinea,-6.314993,143.95555,Part-Time,75509,03-03-2023,Male,Event Coordinator,Event Planner,Stack Overflow Jobs,Event planning and coordination Budget management Vendor negotiation Venue selection and management Timeline and logistics planning Marketing and promotion Risk management Client communication Creativity Problem-solving Attention to detail,Northrop Grumman
1.11341E+15,1 to 11 Years,MBA,60-124,Seoul,North Korea,40.3399,127.5101,Full-Time,70223,27-07-2022,Female,IT Support Specialist,Desktop Support Technician,Snagajob,"Desktop hardware and software troubleshooting Operating system expertise (e.g., Windows, macOS) Remote desktop support Hardware and software upgrades Customer service skills",Corteva
2.48699E+15,2 to 13 Years,BBA,55-88,Dakar,Senegal,14.4974,-14.4524,Intern,24942,16-04-2022,Both,Investment Analyst,Portfolio Manager,Stack Overflow Jobs,Investment management Financial analysis Risk assessment Asset allocation Portfolio optimization,Icahn Enterprises
2.33158E+15,0 to 10 Years,BA,62-102,Bandar Seri Begawan,Brunei,4.5353,114.7277,Contract,19832,18-07-2022,Both,Family Nurse Practitioner,Geriatric Nurse Practitioner,The Muse,Geriatric healthcare Geriatric assessment Geriatric treatment Elderly patient care Geriatric pharmacology,Colgate-Palmolive
1.45974E+15,2 to 10 Years,M.Tech,58-125,Oslo,Norway,60.472,8.4689,Temporary,44367,07-08-2023,Female,Front-End Engineer,JavaScript Developer,Internships.com,"JavaScript programming Frontend development Frontend frameworks (e.g., React, Angular) DOM manipulation AJAX Debugging and troubleshooting",SF Express
1.64832E+15,4 to 12 Years,BCA,55-111,Muscat,Oman,21.4735,55.9754,Contract,114433,17-03-2023,Female,Customer Success Manager,Account Manager,SimplyHired,Account management Customer relationship management Sales and negotiation Business development Client needs analysis,Huntsman
8.96726E+14,0 to 12 Years,BCA,59-113,Maseru,Lesotho,-29.6099,28.2336,Intern,79091,14-04-2022,Both,Procurement Coordinator,Purchasing Coordinator,SimplyHired,Procurement Supplier management Negotiation Supply chain management Inventory control Vendor relations,Dover
1.43191E+15,1 to 8 Years,M.Tech,65-90,Port Moresby,Papua New Guinea,-6.314993,143.95555,Part-Time,69645,12-04-2023,Both,Data Engineer,Big Data Engineer,FlexJobs,"Big data technologies (Hadoop, Spark, etc.) Data processing and analysis Distributed computing",Lendlease Group
1.81851E+15,5 to 10 Years,BBA,57-104,Bamako,Mali,17.5707,-3.9962,Full-Time,108139,01-03-2023,Both,Urban Planner,Transportation Planner,Dice,Transportation planning Traffic engineering GIS proficiency Public transportation Project management,Asbury Automotive Group
8.37997E+14,1 to 9 Years,MCA,65-107,Pretoria,South Africa,-30.5595,22.9375,Full-Time,54319,08-10-2022,Male,Account Executive,Key Account Executive,Idealist,Key account management Sales strategy development Negotiation and closing skills Relationship building Industry and market knowledge,TD Ameritrade Holding Corporation
2.6546E+15,4 to 11 Years,M.Tech,56-128,Kuwait City,Kuwait,29.3117,47.4818,Contract,126200,25-04-2022,Both,HR Coordinator,Benefits Coordinator,USAJOBS,Employee benefits administration Benefits compliance HRIS Benefits communication,Muthoot Finance
1.599E+14,4 to 14 Years,B.Tech,56-92,Moscow,Russia,61.524,105.3188,Full-Time,127707,28-02-2022,Male,Financial Analyst,Investment Analyst,FlexJobs,Financial analysis Investment evaluation Portfolio management Data analysis,Aflac
2.09993E+15,0 to 10 Years,MBA,56-126,Riga,Latvia,56.8796,24.6032,Intern,67492,12-01-2023,Female,Email Marketing Specialist,Email Campaign Manager,Internships.com,"Email marketing strategies Email marketing platforms (e.g., MailChimp, HubSpot) Audience segmentation A/B testing Campaign analytics Copywriting HTML/CSS for email Marketing automation Communication skills Data analysis Attention to detail",Quanta Services
2.89469E+12,2 to 10 Years,M.Tech,61-116,Juba,South Sudan,6.877,31.307,Contract,105454,08-01-2022,Male,Environmental Engineer,Sustainability Specialist,Indeed,Sustainability practices Environmental management systems Green certifications,Ashtead Group
1.76688E+15,1 to 15 Years,M.Com,60-98,Lusaka,Zambia,-13.1339,27.8493,Part-Time,67760,22-12-2022,Male,Back-End Developer,Server Developer,LinkedIn,"Server-side programming languages (e.g., Java, Python) Database management API development",Glenmark Pharmaceuticals
1.76569E+15,3 to 8 Years,MCA,58-129,Brasilia,Brazil,-14.235,-51.9253,Full-Time,31344,11-10-2022,Male,Network Administrator,Systems Administrator,Internships.com,"System administration Server maintenance Active Directory Backup and recovery Cloud computing (e.g., AWS, Azure) Troubleshooting IT security best practices Collaboration Problem-solving Attention to detail Communication skills Technical knowledge",Eastman Chemical
2.04435E+15,3 to 12 Years,BBA,60-108,Cockburn Town,Turks and Caicos Islands,21.694,-71.7979,Part-Time,35925,03-08-2022,Male,Structural Engineer,Design Engineer,Dice,Engineering design CAD software proficiency Problem-solving Technical knowledge Communication skills,Carnival Corporation & plc
6.6959E+14,2 to 10 Years,M.Com,63-106,Jakarta,Indonesia,-0.7893,113.9213,Temporary,125215,05-09-2022,Both,Market Research Analyst,Market Research Coordinator,Idealist,Market research coordination Survey design and administration Data analysis,Adani Green Energy
2.123E+15,0 to 14 Years,BBA,55-95,New Delhi,India,20.5937,78.9629,Contract,102180,17-07-2022,Female,Customer Service Representative,Call Center Agent,Jobs2Careers,Customer service Call center operations Problem-solving skills,Textron
1.05152E+14,5 to 15 Years,BA,56-87,Port of Spain,Trinidad and Tobago,10.6918,-61.2225,Temporary,28776,23-07-2023,Both,Customer Support Specialist,Customer Success Manager,LinkedIn,Customer relationship management Onboarding and training Customer feedback analysis Retention strategies Cross-selling and upselling Strong communication and empathy Customer advocacy,Fiat Chrysler Automobiles N.V.
2.70089E+15,2 to 8 Years,M.Com,61-107,Kigali,Rwanda,-1.9403,29.8739,Full-Time,98633,14-03-2022,Male,Landscape Architect,Environmental Designer,FlexJobs,Environmental design principles Sustainability concepts CAD and design software,"Dr. Pepper Snapple Group, Inc."
2.43167E+15,5 to 8 Years,MBA,60-97,Quito,Ecuador,-1.8312,-78.1834,Contract,50314,15-07-2022,Female,Account Manager,Sales Account Manager,Indeed,Account management Sales strategy Negotiation and closing skills,BYD Company
5.70456E+14,5 to 15 Years,B.Com,62-81,Kampala,Uganda,1.3733,32.2903,Full-Time,44564,07-09-2022,Both,UX/UI Designer,User Interface Designer,FlexJobs,"UI design principles and best practices Graphic design tools (e.g., Adobe Photoshop, Illustrator) Typography and color theory Visual design and layout Responsive design",Delta Air Lines
1.25456E+15,1 to 8 Years,B.Com,63-127,Funafuti,Tuvalu,-7.1095,177.6493,Temporary,90785,15-04-2022,Male,Business Analyst,IT Business Analyst,Stack Overflow Jobs,Business process analysis Requirement gathering Data analysis Communication skills,Kinder Morgan
2.64875E+15,2 to 15 Years,MCA,60-98,Bangui,Central African Republic,6.6111,20.9394,Temporary,55939,06-05-2023,Male,UX/UI Designer,User Interface Designer,The Muse,"UI design principles and best practices Graphic design tools (e.g., Adobe Photoshop, Illustrator) Typography and color theory Visual design and layout Responsive design",CDW
1.72492E+15,5 to 15 Years,BCA,63-101,Bratislava,Slovak Republic,48.669,19.699,Intern,68931,11-01-2023,Female,Front-End Engineer,JavaScript Developer,Internships.com,"JavaScript programming Frontend development Frontend frameworks (e.g., React, Angular) DOM manipulation AJAX Debugging and troubleshooting",Tencent Holdings
2.97156E+15,2 to 10 Years,PhD,65-89,Port Moresby,Papua New Guinea,-6.314993,143.95555,Contract,17240,02-03-2023,Male,Family Lawyer,Child Custody Lawyer,Snagajob,Child custody law Family law Legal advocacy Negotiation Court representation Legal research Client counseling Case preparation,Halma
5.79575E+14,3 to 9 Years,MCA,59-117,"Washington, D.C.",USA,37.0902,-95.7129,Temporary,126334,07-06-2023,Male,Network Engineer,Wireless Network Engineer,USAJOBS,Wireless network design and architecture Wi-Fi standards and protocols RF (Radio Frequency) planning and optimization Wireless security protocols Troubleshooting wireless network issues,Lendlease Group
2.1494E+15,5 to 8 Years,PhD,58-128,Suva,Fiji,-17.7134,178.065,Intern,97779,07-09-2022,Female,Data Analyst,Data Scientist,Idealist,"Machine learning algorithms and libraries (e.g., scikit-learn, TensorFlow, PyTorch) Statistical analysis and modeling Data preprocessing and cleaning Big data technologies (e.g., Hadoop, Spark) Data visualization Strong programming skills (Python, R)",AES
1.38501E+15,4 to 8 Years,BA,62-123,Castries,St. Lucia,13.9094,-60.9789,Temporary,104205,10-09-2022,Male,Registered Nurse,Clinical Nurse Specialist,Jobs2Careers,"Clinical nursing specialization (e.g., critical care, oncology) Advanced nursing skills Patient education",Bajaj Auto
2.69971E+15,2 to 15 Years,B.Tech,59-123,Antananarivo,Madagascar,-18.8792,46.8451,Contract,16918,03-12-2022,Both,Legal Assistant,Legal Secretary,The Muse,"Legal administrative tasks Document management Calendar and docketing Transcription File organization Communication with clients and courts Knowledge of legal terminology Attention to detail Multitasking Computer skills (e.g., MS Office)",Siemens India
9.39685E+14,1 to 15 Years,B.Tech,65-120,The City of Hamilton,Bermuda,32.3078,-64.7505,Intern,124651,27-05-2022,Male,Brand Manager,Product Brand Manager,Idealist,Product branding and marketing Product lifecycle management Cross-functional team collaboration Product launch planning Market segmentation and targeting,NextEra Energy
1.89655E+15,0 to 15 Years,BA,60-114,Prague,Czech Republic,49.8175,15.473,Intern,108319,23-12-2022,Both,Chemical Analyst,Quality Control Analyst,Indeed,Quality control Quality assurance QC testing methods Compliance standards Root cause analysis Documentation Statistical analysis,Computacenter
1.14645E+14,2 to 11 Years,PhD,65-105,Chisinau,Moldova,47.4116,28.3699,Full-Time,31928,22-06-2023,Male,Data Analyst,Data Scientist,FlexJobs,"Machine learning algorithms and libraries (e.g., scikit-learn, TensorFlow, PyTorch) Statistical analysis and modeling Data preprocessing and cleaning Big data technologies (e.g., Hadoop, Spark) Data visualization Strong programming skills (Python, R)",Meta Platforms
7.88184E+14,1 to 8 Years,PhD,59-100,Skopje,"Macedonia, FYR",41.6086,21.7453,Contract,132326,16-01-2022,Both,Account Executive,Sales Account Executive,Stack Overflow Jobs,Sales strategies and tactics Account management Relationship building Sales forecasting Industry and product knowledge,Hershey
3.07502E+15,5 to 10 Years,BBA,65-98,Amman,Jordan,30.5852,36.2384,Temporary,55283,22-05-2023,Female,Electrical Engineer,Power Systems Engineer,Jobs2Careers,Electrical engineering Power system analysis Renewable energy systems Control systems Safety regulations,TAG Immobilien AG
4.66084E+14,0 to 13 Years,BCA,63-85,Port-au-Prince,Haiti,18.9712,-72.2852,Full-Time,128578,13-02-2023,Both,Network Technician,Network Security Specialist,Snagajob,Network security Cybersecurity Intrusion detection Security analysis Firewall management,Block
3.86016E+14,2 to 12 Years,B.Com,56-114,"Malabo (de jure),",Equatorial Guinea,1.6508,10.2679,Full-Time,78913,26-02-2023,Female,Customer Support Specialist,Customer Success Manager,Monster,Customer relationship management Onboarding and training Customer feedback analysis Retention strategies Cross-selling and upselling Strong communication and empathy Customer advocacy,Linde plc
2.75877E+14,3 to 11 Years,BA,56-106,Monrovia,Liberia,6.4281,-9.4295,Temporary,130176,20-12-2022,Male,Substance Abuse Counselor,Addiction Counselor,Indeed,Addiction counseling techniques Substance abuse treatment Counseling ethics,Gree Electric Appliances
2.27673E+15,2 to 10 Years,MCA,59-120,Suva,Fiji,-17.7134,178.065,Intern,33129,24-02-2022,Male,Software Architect,Cloud Architect,Internships.com,"Cloud computing platforms (AWS, Azure, etc.) Cloud security Containerization (Docker, Kubernetes)",DCP Midstream
2.51197E+15,1 to 10 Years,BBA,60-82,Berlin,Germany,51.1657,10.4515,Full-Time,21839,15-01-2022,Both,Business Analyst,Data Business Analyst,Glassdoor,"Data analysis Data modeling Data visualization SQL Data tools (e.g., Tableau)",Balfour Beatty
2.78351E+15,1 to 14 Years,MBA,59-115,Tegucigalpa,Honduras,15.199,-86.2419,Part-Time,76529,30-06-2022,Both,Software Developer,Mobile App Developer,SimplyHired,"Mobile app development languages (e.g., Java, Swift, Kotlin) Cross-platform development (e.g., React Native, Flutter) Mobile app design principles APIs and web services integration Debugging and troubleshooting",Australia and New Zealand Banking Group (ANZ)
1.05335E+15,1 to 8 Years,B.Com,60-125,Macao,"Macao SAR, China",22.1987,113.5439,Contract,49446,07-04-2023,Female,Nurse Manager,Nursing Director,The Muse,Nursing management Patient care coordination Staff supervision Compliance with healthcare regulations Quality improvement Leadership skills,MetLife
5.88018E+13,1 to 15 Years,BA,65-107,Douglas,Isle of Man,54.2361,-4.5481,Full-Time,56862,05-01-2022,Both,Veterinarian,Small Animal Veterinarian,Snagajob,Veterinary medicine Small animal care and surgery Animal diagnostics Preventive medicine Client communication Surgical skills Radiology Anesthesia Laboratory diagnostics Compassion and empathy Problem-solving Attention to detail,American Tower
1.86236E+15,4 to 8 Years,B.Com,62-126,Maseru,Lesotho,-29.6099,28.2336,Contract,33592,19-11-2022,Both,Process Engineer,Chemical Engineer,Idealist,Chemical engineering Process design Chemical reactions Safety protocols Laboratory techniques Problem-solving skills,Expedia Group
6.56921E+14,2 to 10 Years,PhD,62-117,Antananarivo,Madagascar,-18.8792,46.8451,Temporary,90814,04-01-2022,Female,Research Analyst,Market Research Analyst,ZipRecruiter,"Market research methodologies Data collection and analysis Consumer behavior analysis Competitor analysis Survey design and analysis Statistical analysis software (e.g., SPSS, SAS) Data visualization Trend analysis Report writing Communication skills Attention to detail",Archer Daniels Midland
2.88777E+15,1 to 10 Years,MCA,57-98,Bridgetown,Barbados,13.1939,-59.5432,Contract,34509,23-03-2023,Both,IT Manager,Infrastructure Manager,Internships.com,"Network administration System administration Virtualization technologies (e.g., VMware, Hyper-V) Storage management IT security Disaster recovery planning Capacity planning Monitoring and troubleshooting Cloud infrastructure (e.g., AWS, Azure) Vendor management",Steel Dynamics
2.58858E+15,4 to 12 Years,B.Com,64-130,Port of Spain,Trinidad and Tobago,10.6918,-61.2225,Temporary,57908,27-02-2022,Male,Operations Manager,Quality Control Manager,USAJOBS,"Quality control processes and methodologies Statistical process control (SPC) Root cause analysis and corrective action Quality management systems (e.g., ISO 9001) Compliance and regulatory knowledge",Graphic Packaging Holding
1.36007E+15,1 to 10 Years,PhD,65-101,Tripoli,Libya,26.3351,17.2283,Part-Time,14167,13-06-2023,Female,Account Manager,Client Relationship Manager,Indeed,Client relationship management Customer service Communication skills,Jubilant Foodworks
2.1869E+15,3 to 14 Years,B.Com,63-120,Castries,St. Lucia,13.9094,-60.9789,Temporary,122077,09-11-2022,Male,Web Developer,Backend Web Developer,USAJOBS,"Server-side programming (e.g., Node.js, Python) Database management (e.g., SQL, MongoDB)",AGCO
2.02526E+15,3 to 13 Years,BBA,61-94,Funafuti,Tuvalu,-7.1095,177.6493,Temporary,72890,29-04-2022,Female,Database Administrator,Database Developer,Internships.com,"Database design and development SQL and database querying Data modeling Programming languages (e.g., Java, Python) Data security and privacy regulations knowledge",Diageo
1.604E+14,3 to 15 Years,B.Tech,63-100,SÃƒÂ£o TomÃƒÂ©,Sao Tome and Principe,0.1864,6.6131,Part-Time,51195,10-08-2023,Male,Legal Assistant,Legal Secretary,Idealist,"Legal administrative tasks Document management Calendar and docketing Transcription File organization Communication with clients and courts Knowledge of legal terminology Attention to detail Multitasking Computer skills (e.g., MS Office)",Continental Resources
3.36201E+14,1 to 9 Years,MBA,55-100,Kathmandu,Nepal,28.3949,84.124,Part-Time,118838,19-10-2022,Male,Pharmaceutical Sales Representative,Medical Sales Specialist,The Muse,Medical product knowledge Understanding of healthcare regulations Relationship building with healthcare professionals Sales forecasting and planning Medical sales techniques,Eversource Energy
2.4845E+14,2 to 11 Years,M.Tech,56-93,San Marino,San Marino,43.9424,12.4578,Full-Time,118067,11-05-2023,Female,Office Manager,Office Coordinator,Glassdoor,Office administration Calendar management Reception duties Communication skills Record keeping Office supplies management,JetBlue Airways
2.19457E+15,3 to 13 Years,B.Tech,55-104,Douglas,Isle of Man,54.2361,-4.5481,Contract,35498,10-10-2022,Male,UX/UI Designer,Interaction Designer,Indeed,Interaction design principles User behavior and psychology Wireframing and prototyping tools Animation and micro-interaction design Collaborative design processes,Avantor
9.67649E+13,2 to 13 Years,BCA,57-118,Moscow,Russia,61.524,105.3188,Intern,76972,01-07-2022,Both,UX/UI Designer,Interaction Designer,Jobs2Careers,Interaction design principles User behavior and psychology Wireframing and prototyping tools Animation and micro-interaction design Collaborative design processes,Johnson & Johnson
2.49334E+15,1 to 13 Years,M.Tech,61-112,Kuwait City,Kuwait,29.3117,47.4818,Part-Time,116488,20-09-2022,Male,Legal Assistant,Paralegal,ZipRecruiter,"Legal research Document drafting Case management E-filing Legal databases (e.g., LexisNexis) Client communication Deposition preparation Trial support Ethics and confidentiality Attention to detail Communication skills Legal software proficiency","Etsy, Inc."
9.19131E+14,3 to 10 Years,MBA,59-95,SÃƒÂ£o TomÃƒÂ©,Sao Tome and Principe,0.1864,6.6131,Full-Time,37773,04-04-2022,Male,Software Tester,Automation Tester,Idealist,"Test automation tools (e.g., Selenium, Appium) Scripting languages (e.g., Python, Java) Test framework development Continuous integration tools Test data management",Marathon Oil
2.42287E+15,5 to 9 Years,M.Com,62-98,Ashgabat,Turkmenistan,38.9697,59.5563,Full-Time,77933,04-02-2022,Male,Account Executive,Sales Account Executive,Internships.com,Sales strategies and tactics Account management Relationship building Sales forecasting Industry and product knowledge,Williams
2.4271E+15,1 to 10 Years,MBA,61-109,Singapore,Singapore,1.3521,103.8198,Temporary,84357,30-11-2022,Male,Architect,Project Architect,FlexJobs,Architectural project management Construction documents Building systems Design coordination Client communication,AES
2.56906E+15,4 to 9 Years,BCA,57-82,Lima,Peru,-9.189967,-75.015152,Part-Time,86636,02-07-2022,Male,Customer Service Manager,Service Quality Assurance Manager,Internships.com,Quality assurance Quality control Process improvement Audit procedures Compliance standards Root cause analysis,Sun Pharmaceutical Industries
6.58352E+14,0 to 8 Years,BCA,59-99,Conakry,Guinea,9.9456,-9.6966,Part-Time,130927,30-03-2022,Male,Software Tester,Performance Tester,The Muse,"Performance testing methodologies Load testing tools (e.g., JMeter) Test script development Performance profiling and analysis Bottleneck identification",Burberry Group
3.08448E+15,3 to 10 Years,BCA,57-110,Riga,Latvia,56.8796,24.6032,Temporary,102718,23-05-2022,Female,Systems Administrator,IT Support Specialist,Idealist,Technical troubleshooting Hardware and software support Customer service Problem-solving Communication,UltraTech Cement
1.48719E+15,2 to 13 Years,PhD,57-122,Ngerulmud,Palau,7.5149,134.5825,Temporary,124815,25-06-2022,Male,Pharmaceutical Sales Representative,Territory Sales Manager,Snagajob,Sales leadership Territory management Team management Sales data analysis Strategic planning and execution,Metro Bank
1.71433E+15,0 to 8 Years,BCA,59-105,Maseru,Lesotho,-29.6099,28.2336,Part-Time,64637,09-01-2022,Female,IT Support Specialist,Help Desk Support Specialist,SimplyHired,Technical troubleshooting Customer service and communication Ticketing system usage Basic IT knowledge Problem-solving and critical-thinking skills,Ingredion
2.68862E+15,3 to 11 Years,MBA,63-93,Papeete,French Polynesia,-17.6797,-149.4068,Temporary,77218,09-11-2022,Male,UX/UI Designer,Interaction Designer,Glassdoor,Interaction design principles User behavior and psychology Wireframing and prototyping tools Animation and micro-interaction design Collaborative design processes,The Kraft Heinz Company
6.56416E+13,4 to 10 Years,B.Tech,60-109,Gibraltar,Gibraltar,36.1408,-5.3536,Contract,39062,25-10-2022,Female,Teacher,Special Education Teacher,FlexJobs,Special education strategies Individualized education plans (IEPs) Behavior management techniques Collaboration with support staff Special education laws and regulations knowledge,NVR
2.53673E+15,5 to 8 Years,M.Com,56-122,Gibraltar,Gibraltar,36.1408,-5.3536,Contract,24257,12-07-2022,Both,Systems Administrator,IT Support Specialist,FlexJobs,Technical troubleshooting Hardware and software support Customer service Problem-solving Communication,Hindustan Petroleum Corporation Limited (HPCL)
2.44018E+15,2 to 10 Years,BBA,57-125,Victoria,Seychelles,-4.6796,55.492,Temporary,44151,22-03-2022,Both,HR Coordinator,Recruitment Coordinator,Dice,Recruitment process Candidate screening Applicant tracking systems Communication,Great Wall Motors
1.35272E+15,3 to 10 Years,PhD,62-100,Santo Domingo,Dominican Republic,18.7357,-70.1627,Part-Time,47304,19-03-2023,Male,Quality Assurance Analyst,Test Automation Engineer,FlexJobs,"Test automation frameworks and tools Scripting and programming languages (e.g., Python, Java) Continuous integration and continuous testing (CI/CT) Test script development and maintenance Test environment setup and management",Adani Green Energy
2.55404E+15,2 to 11 Years,MCA,57-93,City of Baghdad,Iraq,33.2232,43.6793,Part-Time,15573,05-03-2023,Both,Physician Assistant,Surgical Physician Assistant,The Muse,Surgical procedures and techniques Operating room protocols Anesthesia management,Lincoln National
2.4487E+15,5 to 9 Years,BCA,57-90,Brasilia,Brazil,-14.235,-51.9253,Intern,119368,25-02-2022,Male,HR Coordinator,Recruitment Coordinator,Snagajob,Recruitment process Candidate screening Applicant tracking systems Communication,Informa
1.80149E+15,3 to 15 Years,MBA,64-115,Budapest,Hungary,47.1625,19.5033,Intern,130952,26-12-2022,Female,Data Entry Clerk,Administrative Assistant,Monster,Office management Administrative tasks Communication and organization,ITC Limited
1.71164E+15,1 to 13 Years,MCA,56-89,Nairobi,Kenya,-1.2864,36.8172,Part-Time,116690,12-03-2022,Male,Data Analyst,Data Quality Analyst,Stack Overflow Jobs,"Data quality assessment and improvement Data profiling and validation Knowledge of data quality tools (e.g., Informatica, Talend) Data governance principles SQL for data analysis Attention to detail and data accuracy",Westinghouse Air Brake Technologies
3.99218E+14,5 to 12 Years,BCA,55-84,Bucharest,Romania,45.9432,24.9668,Full-Time,97570,27-07-2023,Both,Accountant,Tax Accountant,Idealist,Tax preparation Tax planning Tax regulations Accounting Tax software proficiency,Deutsche Bahn AG
2.5542E+15,5 to 12 Years,PhD,62-111,City of Port Louis,Mauritius,-20.3484,57.5522,Full-Time,101756,13-03-2023,Male,Investment Banker,Investment Portfolio Manager,Internships.com,Investment analysis Portfolio management Risk assessment,Reliance Steel & Aluminum
2.11423E+15,3 to 13 Years,BBA,64-95,Pretoria,South Africa,-30.5595,22.9375,Contract,24969,30-05-2023,Both,Marketing Director,Brand Director,Snagajob,Brand strategy Brand development Creative direction Brand management Market research,"Spirit Airlines, Inc."
7.73798E+14,5 to 9 Years,B.Tech,57-82,Juba,South Sudan,6.877,31.307,Intern,26133,21-01-2022,Female,Network Administrator,Systems Administrator,CareerBuilder,"System administration Server maintenance Active Directory Backup and recovery Cloud computing (e.g., AWS, Azure) Troubleshooting IT security best practices Collaboration Problem-solving Attention to detail Communication skills Technical knowledge",Reliance Industries Limited
1.29614E+15,4 to 13 Years,MBA,59-115,City of Port Louis,Mauritius,-20.3484,57.5522,Temporary,79515,10-04-2023,Male,Front-End Developer,Accessibility Developer,Internships.com,"Web accessibility standards (e.g., WCAG) Assistive technologies Accessibility testing tools HTML and CSS for accessibility ARIA (Accessible Rich Internet Applications) User experience (UX) for accessibility Usability testing with individuals with disabilities Collaboration Attention to detail",Otis Worldwide
2.51377E+15,4 to 12 Years,MBA,56-90,Nouakchott,Mauritania,21.0079,-10.9408,Contract,93492,15-02-2022,Female,Social Media Manager,Social Media Analyst,USAJOBS,"Social media analytics tools (e.g., Google Analytics, Facebook Insights) Data analysis and reporting Social media ROI measurement Competitive analysis Trend identification",China Telecom
2.49919E+13,5 to 15 Years,MCA,60-129,Paris,France,46.603354,1.888334,Full-Time,90587,20-02-2022,Male,Project Manager,Construction Project Manager,Glassdoor,Construction management Budgeting Contract negotiation Safety regulations,Deutsche Post DHL Group
1.22554E+15,1 to 9 Years,B.Tech,56-116,Dili,Timor-Leste,-8.8742,125.7275,Intern,47263,30-04-2023,Female,Java Developer,Java Software Engineer,Snagajob,"Java programming Java frameworks (e.g., Spring) Object-oriented design Code debugging Software development Problem-solving skills",Go-Ahead Group
2.29263E+15,3 to 13 Years,BCA,62-84,Apia,American Samoa,-14.271,-170.1322,Part-Time,125487,09-09-2023,Male,Project Manager,IT Project Manager,FlexJobs,Project management Team leadership Risk management Budgeting Communication skills,CSX
1.24396E+15,4 to 8 Years,BA,55-104,N'Djamena,Chad,15.4542,18.7322,Temporary,103497,14-02-2022,Female,Interior Designer,Residential Interior Designer,Jobs2Careers,Residential interior design Space planning Color theory and selection Furniture and materials selection 3D modeling and rendering,Whitbread plc
9.55448E+14,5 to 14 Years,M.Tech,56-110,Manama,Bahrain,26.0667,50.5577,Temporary,35422,07-06-2023,Male,Executive Assistant,Office Manager,Snagajob,Office administration and management Budgeting and expense tracking Team coordination and supervision Facility management Vendor and supplier relations,Interpublic Group
3.63945E+14,1 to 11 Years,MBA,59-125,Honiara,Solomon Islands,-9.6457,160.1562,Intern,113973,27-09-2022,Male,HR Manager,Human Resources Director,The Muse,Strategic HR planning Employee relations Talent management HR policy development Leadership skills,Waste Management
1.97196E+15,3 to 9 Years,M.Com,62-87,Ngerulmud,Palau,7.5149,134.5825,Contract,122409,21-03-2023,Both,Executive Assistant,Personal Assistant,FlexJobs,Organizational and time management skills Calendar and appointment management Communication and correspondence Travel coordination Discretion and confidentiality,TPG Telecom
2.98072E+15,2 to 12 Years,MCA,56-101,Pretoria,South Africa,-30.5595,22.9375,Part-Time,17659,18-03-2023,Male,Human Resources Manager,Talent Acquisition Manager,Glassdoor,Talent sourcing Interviewing Onboarding Recruitment strategies HR software,Glencore
2.09644E+15,0 to 9 Years,B.Tech,61-99,Luxembourg,Luxembourg,49.8153,6.1296,Part-Time,65539,14-09-2022,Male,Pharmaceutical Sales Representative,Sales Representative,LinkedIn,Sales techniques and strategies Relationship building CRM software usage Product knowledge Negotiation and closing skills,Caesars Entertainment
1.454E+14,4 to 12 Years,BBA,65-102,Dublin,Ireland,53.1424,-7.6921,Temporary,134033,04-03-2022,Female,Software Tester,Quality Assurance Analyst,The Muse,"Quality assurance processes Testing methodologies (e.g., manual, automated) Bug tracking and reporting Test case development Regression testing",Hindalco Industries
1.01652E+15,0 to 15 Years,B.Tech,57-111,Victoria,Seychelles,-4.6796,55.492,Full-Time,67545,26-02-2022,Male,Litigation Attorney,Corporate Litigator,Snagajob,Corporate law Commercial litigation Dispute resolution Contract law Legal strategy Negotiation,Markel
2.64675E+15,5 to 10 Years,MBA,63-102,Male,Maldives,3.2028,73.2207,Intern,50886,20-04-2023,Male,Architectural Designer,Interior Designer,Monster,"Interior design Space planning Color theory Material selection CAD software (e.g., SketchUp) Client collaboration Budget management",General Electric
2.16761E+15,5 to 14 Years,BA,60-114,Yerevan,Armenia,40.0691,45.0382,Contract,15940,02-10-2022,Female,Veterinarian,Exotic Animal Veterinarian,Snagajob,Exotic animal medicine Exotic animal diagnostics Specialized surgical skills Avian medicine Reptile care Amphibian care Exotic animal anesthesia Compassion and empathy Client communication Problem-solving Attention to detail,Ford Motor Company
2.03331E+15,3 to 15 Years,M.Com,56-127,Tripoli,Libya,26.3351,17.2283,Temporary,93302,25-01-2022,Both,Marketing Manager,Brand Manager,The Muse,Brand strategy development Brand identity and design Brand storytelling Marketing campaigns Brand performance measurement Creative thinking Strong communication skills,CBRE Group
6.42334E+14,1 to 12 Years,BBA,63-105,Bangui,Central African Republic,6.6111,20.9394,Full-Time,41575,08-08-2023,Female,Procurement Specialist,Sourcing Analyst,Stack Overflow Jobs,Sourcing strategies Supplier evaluation Market research Cost analysis Contract negotiation,Indian Bank
2.25806E+13,5 to 9 Years,BA,61-119,Amman,Jordan,30.5852,36.2384,Intern,21893,18-06-2022,Both,UX/UI Designer,Interaction Designer,Idealist,Interaction design principles User behavior and psychology Wireframing and prototyping tools Animation and micro-interaction design Collaborative design processes,Parker-Hannifin
4.22676E+14,4 to 15 Years,BA,56-107,Damascus,Syrian Arab Republic,34.8021,38.9968,Part-Time,131180,25-05-2023,Female,Network Administrator,Systems Administrator,Indeed,"System administration Server maintenance Active Directory Backup and recovery Cloud computing (e.g., AWS, Azure) Troubleshooting IT security best practices Collaboration Problem-solving Attention to detail Communication skills Technical knowledge",Ovintiv
3.08137E+15,0 to 14 Years,MBA,56-116,Bishkek,Kyrgyz Republic,41.2044,74.7661,Temporary,121810,16-01-2022,Male,Customer Support Specialist,Customer Success Manager,FlexJobs,Customer relationship management Onboarding and training Customer feedback analysis Retention strategies Cross-selling and upselling Strong communication and empathy Customer advocacy,Rentokil Initial
9.57305E+14,1 to 11 Years,B.Com,55-106,Oslo,Norway,60.472,8.4689,Temporary,63963,07-07-2023,Female,Investment Banker,Investment Portfolio Manager,USAJOBS,Investment analysis Portfolio management Risk assessment,Hindustan Zinc
1.76681E+15,1 to 15 Years,BCA,60-83,Accra,Ghana,7.9465,-1.0232,Full-Time,51609,16-07-2023,Male,Network Administrator,Systems Administrator,FlexJobs,"System administration Server maintenance Active Directory Backup and recovery Cloud computing (e.g., AWS, Azure) Troubleshooting IT security best practices Collaboration Problem-solving Attention to detail Communication skills Technical knowledge",Skechers U.S.A.
2.5958E+15,1 to 9 Years,M.Com,62-102,BogotÃƒÂ¡,Colombia,4.5709,-74.2973,Full-Time,27095,08-10-2022,Female,Human Resources Manager,Employee Relations Specialist,Jobs2Careers,Employee conflict resolution HR compliance Employee engagement Communication skills,Huawei Technologies
3.0572E+15,0 to 8 Years,M.Tech,62-121,Damascus,Syrian Arab Republic,34.8021,38.9968,Intern,55227,11-09-2022,Female,Art Teacher,Fine Arts Instructor,The Muse,Artistic skills Teaching ability Communication skills Art history knowledge Creativity,China Shenhua Energy
2.07519E+15,3 to 14 Years,BCA,55-119,The City of Hamilton,Bermuda,32.3078,-64.7505,Temporary,44386,11-01-2023,Female,Public Relations Specialist,Brand PR Specialist,SimplyHired,Brand management Public relations Brand storytelling Influencer marketing Media monitoring,Deutsche Lufthansa AG
2.47072E+15,4 to 11 Years,BBA,55-98,Port Moresby,Papua New Guinea,-6.314993,143.95555,Temporary,89719,25-03-2023,Both,Financial Controller,Finance Manager,Idealist,"Financial management Budgeting Financial analysis Financial reporting Risk management Financial software (e.g., Excel, QuickBooks) Strategic planning",TD Synnex
6.0329E+14,1 to 10 Years,MBA,59-119,Bangkok,Thailand,15.87,100.9925,Contract,120503,25-07-2023,Both,Research Analyst,Social Science Researcher,Internships.com,"Social science research methods Qualitative and quantitative data analysis Survey design and implementation Ethnographic research Interviewing skills Research ethics Statistical software (e.g., Stata, NVivo) Report writing Communication skills Critical thinking Empathy",Standard Chartered
3.79086E+14,0 to 14 Years,BA,56-93,Tashkent,Uzbekistan,41.3775,64.5853,Part-Time,116493,18-07-2023,Female,Network Engineer,Network Administrator,SimplyHired,"Network management Troubleshooting Network security IT certifications (e.g., CCNA)",Aramark
2.10601E+15,0 to 11 Years,B.Tech,63-111,The City of Hamilton,Bermuda,32.3078,-64.7505,Full-Time,91826,02-02-2022,Female,Investment Advisor,Wealth Advisor,Indeed,Financial planning Investment knowledge Relationship management Communication skills Analytical skills,Dollar General
2.22655E+15,0 to 11 Years,B.Com,64-100,Dili,Timor-Leste,-8.8742,125.7275,Full-Time,17522,28-04-2023,Both,Financial Analyst,Financial Planner,The Muse,Financial planning Investment strategy Retirement planning Tax knowledge,DXC Technology
1.08766E+15,0 to 14 Years,MCA,64-103,Naypyidaw,Myanmar,21.9162,95.956,Intern,101425,28-07-2023,Female,Procurement Specialist,Procurement Coordinator,The Muse,Procurement processes Purchase order management Vendor communication Data analysis Inventory control,Bajaj Electricals
1.38474E+15,2 to 13 Years,BA,60-105,Panama City,Panama,8.5379,-80.7821,Contract,24619,13-02-2022,Male,Speech Therapist,Speech Pathologist,Idealist,Speech pathology Articulation therapy Language disorders Speech assessment Therapy planning Communication skills,Baker Hughes
1.59655E+15,0 to 11 Years,MCA,65-119,Kingstown,St. Vincent and the Grenadines,12.9843,-61.2872,Contract,30887,11-07-2022,Female,Digital Marketing Specialist,Social Media Manager,Idealist,"Social media platforms (e.g., Facebook, Twitter, Instagram) Content creation and scheduling Social media analytics and insights Community engagement Paid social advertising",Asbury Automotive Group
1.43803E+15,1 to 14 Years,PhD,58-81,Paramaribo,Suriname,3.9193,-56.0278,Intern,32400,27-10-2022,Female,Market Research Analyst,Market Researcher,CareerBuilder,Market research methodologies Data collection and analysis Industry knowledge,United Parcel Service
1.31758E+15,5 to 13 Years,B.Com,55-111,Ouagadougou,Burkina Faso,12.2383,-1.5616,Contract,40233,25-08-2022,Female,Marketing Analyst,Data Analyst,The Muse,"Data analysis tools (e.g., SQL, Python) Data visualization tools (e.g., Tableau, Power BI) Statistical analysis Data cleansing and transformation Data modeling Communication of data insights Problem-solving Attention to detail Business acumen",Constellation Brands
5.11793E+14,5 to 12 Years,M.Com,56-106,Torshavn,Faroe Islands,61.8926,-6.9118,Intern,113045,19-11-2022,Female,Financial Controller,Finance Manager,Internships.com,"Financial management Budgeting Financial analysis Financial reporting Risk management Financial software (e.g., Excel, QuickBooks) Strategic planning",Morrison Supermarkets
2.48294E+15,1 to 11 Years,BA,59-104,Paris,France,46.603354,1.888334,Temporary,57916,04-03-2022,Female,Digital Marketing Specialist,Social Media Manager,SimplyHired,"Social media platforms (e.g., Facebook, Twitter, Instagram) Content creation and scheduling Social media analytics and insights Community engagement Paid social advertising",Petrofac
2.70403E+14,5 to 8 Years,M.Tech,55-115,Nur-Sultan,Kazakhstan,48.0196,66.9237,Part-Time,78956,28-04-2023,Both,Paralegal,Real Estate Paralegal,LinkedIn,Real estate transactions Title searches Closing processes Deed preparation Contract review Communication with real estate professionals Attention to detail Real estate terminology Technology proficiency Legal software proficiency Legal research skills,Constellation Energy
5.07093E+14,4 to 14 Years,BCA,63-127,AsunciÃƒÂ³n,Paraguay,-23.442503,-58.443832,Part-Time,39856,20-05-2023,Female,Art Teacher,Fine Arts Instructor,Stack Overflow Jobs,Artistic skills Teaching ability Communication skills Art history knowledge Creativity,Olin
7.44378E+14,2 to 9 Years,M.Tech,55-81,Marigot,St. Martin (French part),18.0708,-63.0501,Part-Time,84597,10-03-2022,Both,Software Tester,Quality Assurance Analyst,SimplyHired,"Quality assurance processes Testing methodologies (e.g., manual, automated) Bug tracking and reporting Test case development Regression testing",Avast
1.68983E+15,4 to 11 Years,M.Com,59-121,Managua,Nicaragua,12.8654,-85.2072,Temporary,67255,21-01-2023,Male,Purchasing Agent,Inventory Manager,Dice,Inventory control Demand forecasting Supply chain management Data analysis Warehouse management,Marathon Oil
3.86936E+14,3 to 8 Years,M.Tech,63-86,Beijing,China,35.8617,104.1954,Temporary,78342,05-07-2023,Both,Event Coordinator,Event Planner,Stack Overflow Jobs,Event planning and coordination Budget management Vendor negotiation Venue selection and management Timeline and logistics planning Marketing and promotion Risk management Client communication Creativity Problem-solving Attention to detail,Raymond James Financial
2.02397E+15,2 to 12 Years,B.Tech,58-121,Vaduz,Liechtenstein,47.166,9.5554,Full-Time,66675,08-09-2022,Male,Mechanical Engineer,Mechanical Design Engineer,LinkedIn,"Mechanical engineering CAD software (e.g., SolidWorks, AutoCAD) Finite element analysis Product development Prototyping",Shriram Transport Finance Company
2.76605E+15,5 to 14 Years,M.Com,55-121,Phnom Penh,Cambodia,12.5657,104.9909,Intern,123615,13-06-2022,Female,Landscape Designer,Commercial Landscape Architect,Jobs2Careers,Landscape architecture Site planning Plant selection Environmental sustainability AutoCAD Project management,Cintas
8.84853E+14,2 to 12 Years,MCA,55-113,Bishkek,Kyrgyz Republic,41.2044,74.7661,Part-Time,57461,25-02-2023,Male,UI Developer,Front-End Developer,Idealist,"Front-end web development HTML, CSS, JavaScript Responsive design Web performance optimization Cross-browser compatibility",Hero MotoCorp
1.10179E+15,2 to 10 Years,PhD,57-92,Warsaw,Poland,51.9194,19.1451,Temporary,128274,07-08-2023,Both,Database Administrator,Database Developer,FlexJobs,"Database design and development SQL and database querying Data modeling Programming languages (e.g., Java, Python) Data security and privacy regulations knowledge",Truist Financial
1.74954E+15,1 to 8 Years,PhD,59-87,Seoul,"Korea, Rep.",35.9078,127.7669,Intern,61224,06-01-2023,Female,Urban Planner,City Planner,Idealist,Urban planning Zoning regulations Environmental planning GIS proficiency Community engagement,Pfizer Inc.
1.47233E+15,2 to 9 Years,M.Tech,59-89,Montevideo,Uruguay,-32.5228,-55.7658,Part-Time,120606,18-01-2023,Female,Web Designer,Frontend Web Designer,Internships.com,Frontend web development HTML/CSS Responsive design User interface (UI) design Adobe Creative Suite Collaboration skills,Genuine Parts
1.88218E+14,3 to 9 Years,B.Com,65-99,Singapore,Singapore,1.3521,103.8198,Part-Time,108697,12-06-2023,Both,Customer Support Specialist,Customer Success Manager,CareerBuilder,Customer relationship management Onboarding and training Customer feedback analysis Retention strategies Cross-selling and upselling Strong communication and empathy Customer advocacy,CRH (China Resources Holdings)
1.34545E+15,0 to 13 Years,M.Com,64-120,Buenos Aires,Argentina,-38.4161,-63.6167,Temporary,125121,01-07-2023,Male,Occupational Therapist,Pediatric Occupational Therapist,Jobs2Careers,Pediatric assessment and evaluation Occupational therapy techniques for children Developmental milestones Sensory integration therapy Pediatric psychology Family-centered care Individualized treatment plans Communication skills Pediatric healthcare knowledge,Pfizer Inc.
2.5043E+15,0 to 14 Years,B.Tech,59-97,Mbabane,Eswatini,26.5225,31.4659,Full-Time,94280,15-08-2023,Both,Legal Counsel,Corporate Attorney,USAJOBS,Corporate law and regulations Contract drafting and negotiation Legal research and analysis Risk management Excellent communication and negotiation skills,Opendoor Technologies
7.28006E+13,1 to 15 Years,B.Tech,58-110,Manama,Bahrain,26.0667,50.5577,Intern,29482,11-07-2022,Male,Art Director,Visual Designer,Indeed,Graphic design Typography User interface (UI) design Adobe Creative Suite proficiency Branding and visual identity creation,Viatris
4.09226E+13,0 to 15 Years,BA,60-99,Guatemala City,Guatemala,15.7835,-90.2308,Part-Time,51908,08-06-2023,Both,Architect,Sustainable Design Specialist,Monster,Sustainable design principles Energy efficiency LEED certification Green building materials Environmental impact assessment,Lockheed Martin
1.48164E+14,5 to 9 Years,M.Tech,56-99,Vientiane,Lao PDR,19.8563,102.4955,Contract,43128,26-04-2022,Both,Public Relations Specialist,Crisis Communication Manager,USAJOBS,Crisis communication planning Crisis response Media relations Reputation management Stakeholder communication,Ambuja Cements
2.91269E+15,4 to 12 Years,M.Tech,61-114,Pretoria,South Africa,-30.5595,22.9375,Temporary,67830,02-08-2023,Male,HR Manager,HR Compliance Specialist,USAJOBS,Employment law knowledge Compliance management Auditing skills Employee relations Communication skills,News Corp.
2.05149E+15,0 to 11 Years,M.Com,64-87,Damascus,Syrian Arab Republic,34.8021,38.9968,Intern,44892,27-05-2023,Male,Registered Nurse,Staff Nurse,Snagajob,Nursing care Patient assessment Medical knowledge,3i Group
2.22638E+14,2 to 9 Years,PhD,59-102,Bridgetown,Barbados,13.1939,-59.5432,Temporary,49999,27-01-2022,Both,Social Worker,Child Welfare Worker,SimplyHired,Child welfare policies and regulations Child protective services Child development Crisis intervention Case management Cultural competence Interviewing and assessment skills Court procedures Documentation Empathy Communication skills,Eversource Energy
1.68948E+15,0 to 15 Years,B.Tech,63-109,Dodoma,Tanzania,-6.369,34.8888,Full-Time,24441,05-07-2022,Male,Customer Success Manager,Account Manager,Jobs2Careers,Account management Customer relationship management Sales and negotiation Business development Client needs analysis,Baidu
2.42166E+15,2 to 14 Years,BCA,58-80,Dakar,Senegal,14.4974,-14.4524,Intern,40753,24-03-2022,Both,Account Executive,Advertising Account Executive,USAJOBS,Advertising and marketing knowledge Client relationship management Advertising campaign development Budget management Media planning and buying,Deutsche Annington Immobilien SE (Now Vonovia SE)
2.73337E+14,2 to 14 Years,BCA,64-130,Yamoussoukro,Cote d'Ivoire,7.54,-5.5471,Full-Time,30038,20-11-2022,Both,Customer Support Specialist,Customer Success Manager,ZipRecruiter,Customer relationship management Onboarding and training Customer feedback analysis Retention strategies Cross-selling and upselling Strong communication and empathy Customer advocacy,Laboratory Corp. of America
5.77212E+14,2 to 15 Years,PhD,55-107,Suva,Fiji,-17.7134,178.065,Temporary,101798,10-08-2023,Male,Legal Advisor,In-House Counsel,Glassdoor,In-house counsel Legal advisory Employment law Intellectual property Regulatory compliance Dispute resolution Contract review Client counseling,Intercontinental Exchange
8.24025E+14,4 to 13 Years,M.Tech,60-95,Gaza,West Bank and Gaza,31.9522,35.2332,Part-Time,77240,07-05-2023,Both,Litigation Attorney,Corporate Litigator,Glassdoor,Corporate law Commercial litigation Dispute resolution Contract law Legal strategy Negotiation,Marsh & McLennan
3.09661E+15,4 to 13 Years,BBA,55-108,New Delhi,India,20.5937,78.9629,Full-Time,39814,27-01-2022,Male,Civil Engineer,Water Resources Engineer,Internships.com,Water resources engineering Hydrology and hydraulics Environmental impact assessment Water resource modeling software Watershed management,Nucor
2.72338E+15,5 to 14 Years,PhD,55-98,Caracas,"Venezuela, RB",6.4238,-66.5897,Contract,120053,19-04-2023,Female,Marketing Coordinator,Marketing Specialist,Internships.com,Market research and analysis Content creation and copywriting Social media management SEO and digital marketing Marketing automation tools proficiency,Brambles Limited
1.61653E+15,2 to 8 Years,B.Com,64-84,Bangkok,Thailand,15.87,100.9925,Part-Time,115243,02-01-2022,Female,SEM Specialist,SEM Analyst,FlexJobs,Search engine marketing (SEM) Google Ads Bing Ads Keyword analysis Ad performance analysis SEM strategy development Bid management,Volkswagen Group
1.19896E+15,4 to 15 Years,PhD,57-126,Thimphu,Bhutan,27.5142,90.4336,Full-Time,31628,25-04-2022,Both,SEO Specialist,Technical SEO Specialist,Stack Overflow Jobs,Technical SEO audits Website crawl analysis Schema markup XML sitemaps Canonicalization,E.ON SE
2.49773E+15,5 to 13 Years,M.Tech,61-130,City of Victoria,"Hong Kong SAR, China",22.3964,114.1095,Contract,30588,12-07-2023,Female,Event Coordinator,Corporate Event Coordinator,SimplyHired,Corporate event planning Corporate branding and messaging Speaker and entertainment booking Audiovisual production Team coordination Crisis management Budgeting and financial management Client communication Creativity Problem-solving Attention to detail,Auto-Owners Insurance
1.84046E+15,5 to 8 Years,M.Tech,59-92,Yerevan,Armenia,40.0691,45.0382,Contract,118244,19-04-2023,Male,Front-End Engineer,UI/UX Front-End Developer,Monster,UI/UX design Frontend web development Wireframing and prototyping User research Accessibility standards Responsive design Collaboration skills,Qurate Retail
2.64816E+15,0 to 12 Years,B.Com,65-106,London,UK,55.3781,-3.436,Part-Time,75711,21-06-2023,Male,Customer Success Manager,Account Manager,USAJOBS,Account management Customer relationship management Sales and negotiation Business development Client needs analysis,"Revlon, Inc."
3.02071E+15,0 to 8 Years,M.Tech,62-110,Harare,Zimbabwe,-19.0154,29.1549,Contract,74181,08-10-2022,Female,Software Engineer,Backend Developer,CareerBuilder,"Proficiency in one or more backend programming languages (e.g., Java, Python, Node.js, Ruby) API development Database management (SQL or NoSQL) Server management and deployment Security best practices Knowledge of web frameworks (e.g., Express, Django)",Henkel AG & Co. KGaA
1.2853E+15,4 to 9 Years,MBA,57-102,Andorra la Vella,Andorra,42.5063,1.5218,Temporary,41769,30-08-2023,Female,Pediatrician,Pediatric Surgeon,USAJOBS,Pediatric surgery Surgical procedures for children Operating room protocols Patient care Surgical techniques Pediatric anesthesia,FedEx
2.14439E+15,0 to 10 Years,B.Tech,56-116,Chisinau,Moldova,47.4116,28.3699,Part-Time,90486,06-04-2023,Female,Event Planner,Event Coordinator,Jobs2Careers,Event planning Vendor coordination Budget management Marketing and promotion Logistics,Jones Lang LaSalle
1.8536E+15,0 to 8 Years,BA,61-123,Phnom Penh,Cambodia,12.5657,104.9909,Contract,34413,12-09-2023,Both,Software Tester,Quality Assurance Analyst,Stack Overflow Jobs,"Quality assurance processes Testing methodologies (e.g., manual, automated) Bug tracking and reporting Test case development Regression testing",Philip Morris International
7.39866E+14,3 to 8 Years,MBA,59-120,Amman,Jordan,30.5852,36.2384,Intern,34438,09-05-2022,Both,Procurement Manager,Strategic Sourcing Manager,Snagajob,Strategic sourcing strategies Supplier evaluation and selection Negotiation skills Vendor management Cost analysis Supply chain management Contract management Problem-solving Attention to detail Communication skills Strategic thinking,APA
1.99535E+15,4 to 9 Years,BBA,63-92,Castries,St. Lucia,13.9094,-60.9789,Contract,53038,11-06-2023,Female,Wedding Planner,Wedding Designer,Dice,Wedding design concepts Decor selection and arrangement Creative flair,Renishaw
2.04939E+15,3 to 9 Years,B.Tech,64-107,Djibouti (city),Djibouti,11.8251,42.5903,Full-Time,25306,08-06-2022,Male,Executive Assistant,Project Coordinator,Internships.com,Project management Communication Time management Organization Problem-solving,Freeport-McMoRan
1.9641E+15,1 to 8 Years,MBA,63-81,London,UK,55.3781,-3.436,Intern,49374,21-01-2023,Female,Systems Analyst,IT Analyst,Jobs2Careers,IT systems analysis Troubleshooting IT support and documentation,Knight-Swift Transportation Holdings
6.94681E+14,1 to 15 Years,MBA,62-112,Nur-Sultan,Kazakhstan,48.0196,66.9237,Intern,33704,29-01-2023,Both,Brand Manager,Brand Strategist,Jobs2Careers,Brand strategy development Market research and analysis Competitive analysis Brand positioning and messaging Creative direction and collaboration,Pioneer Natural Resources
1.2628E+15,0 to 13 Years,BCA,61-109,Cairo,Egypt,26.8206,30.8025,Temporary,67372,11-01-2022,Male,Research Analyst,Social Science Researcher,The Muse,"Social science research methods Qualitative and quantitative data analysis Survey design and implementation Ethnographic research Interviewing skills Research ethics Statistical software (e.g., Stata, NVivo) Report writing Communication skills Critical thinking Empathy",Sherwin-Williams
7.8693E+14,5 to 12 Years,M.Com,61-90,Valletta,Malta,35.9375,14.3754,Temporary,62111,19-03-2022,Male,QA Engineer,QA Manager,ZipRecruiter,Quality assurance Process improvement Team leadership Problem-solving Quality control,Celgene Corporation
5.79817E+13,0 to 12 Years,BCA,61-103,Nuuk,Greenland,71.7069,-42.6043,Part-Time,73377,17-04-2022,Male,HR Coordinator,Benefits Coordinator,Jobs2Careers,Employee benefits administration Benefits compliance HRIS Benefits communication,Nvidia
2.39868E+15,5 to 14 Years,M.Tech,55-81,Antananarivo,Madagascar,-18.8792,46.8451,Part-Time,31627,03-02-2023,Male,Investment Banker,Mergers and Acquisitions Advisor,LinkedIn,Mergers and acquisitions (M&A) expertise Due diligence Valuation techniques,Torrent Pharmaceuticals
1.77452E+15,1 to 8 Years,PhD,59-100,Chisinau,Moldova,47.4116,28.3699,Intern,28473,13-11-2022,Male,Urban Planner,City Planner,The Muse,Urban planning Zoning regulations Environmental planning GIS proficiency Community engagement,IQVIA Holdings
3.06016E+14,2 to 8 Years,MCA,59-102,Basseterre,St. Kitts and Nevis,17.3578,-62.7829,Intern,44441,12-07-2022,Female,Network Engineer,Network Security Engineer,FlexJobs,Network security protocols and technologies Firewalls and intrusion detection systems Vulnerability assessment and penetration testing Security policy development and enforcement Incident response and recovery,Chewy
1.44188E+15,5 to 9 Years,BA,58-82,Lisbon,Portugal,39.3999,-8.2245,Full-Time,66605,01-07-2022,Male,Process Engineer,Industrial Engineer,Monster,Industrial engineering Process optimization Lean manufacturing Quality control Data analysis Workflow design,Vonovia SE
9.6665E+14,5 to 14 Years,M.Tech,56-108,Kingstown,St. Vincent and the Grenadines,12.9843,-61.2872,Intern,71930,22-06-2022,Both,IT Manager,Infrastructure Manager,Dice,"Network administration System administration Virtualization technologies (e.g., VMware, Hyper-V) Storage management IT security Disaster recovery planning Capacity planning Monitoring and troubleshooting Cloud infrastructure (e.g., AWS, Azure) Vendor management",Fidelity National Information Services
2.3805E+15,0 to 14 Years,BBA,60-89,Tripoli,Libya,26.3351,17.2283,Part-Time,49942,28-06-2022,Male,Key Account Manager,Strategic Account Manager,The Muse,Account management Client relationship Sales strategy Business development Negotiation skills,Grafton Group
1.66796E+14,2 to 9 Years,MBA,60-123,Abuja,Nigeria,9.082,8.6753,Full-Time,45400,10-06-2023,Male,Public Relations Specialist,Crisis Communication Manager,Snagajob,Crisis communication planning Crisis response Media relations Reputation management Stakeholder communication,Western Union Company
3.06535E+15,1 to 10 Years,MCA,57-115,Khartoum,Sudan,12.8628,30.2176,Temporary,119855,13-11-2022,Both,Copywriter,SEO Copywriter,CareerBuilder,"SEO (Search Engine Optimization) Keyword research SEO-friendly content On-page optimization Meta tags SEO tools (e.g., SEMrush)",Lloyds Banking Group
1.14043E+15,4 to 9 Years,BA,55-111,Hagatna,Guam,13.4443,144.7937,Temporary,81941,11-06-2022,Male,Data Scientist,Machine Learning Engineer,Indeed,Machine learning algorithms Python programming Data preprocessing Deep learning Model evaluation,Victrex
2.25191E+14,1 to 14 Years,BA,55-84,Riyadh,Saudi Arabia,23.8859,45.0792,Contract,102836,08-04-2023,Female,Urban Planner,Transportation Planner,Indeed,Transportation planning Traffic engineering GIS proficiency Public transportation Project management,Haier Group
5.9158E+14,3 to 10 Years,B.Tech,56-95,Tripoli,Libya,26.3351,17.2283,Part-Time,19148,02-02-2022,Male,Marketing Coordinator,Digital Marketing Coordinator,FlexJobs,Digital marketing strategy development Social media advertising Email marketing Google Analytics and SEO Content management systems (CMS) proficiency,Weir Group
4.1203E+14,5 to 9 Years,MBA,61-86,Ottawa,Canada,56.1304,-106.3468,Full-Time,110479,03-06-2023,Both,Civil Engineer,Water Resources Engineer,FlexJobs,Water resources engineering Hydrology and hydraulics Environmental impact assessment Water resource modeling software Watershed management,Lennar
2.45993E+15,0 to 8 Years,MBA,63-117,Wellington,New Zealand,-40.9006,174.886,Contract,55307,24-01-2023,Male,Architect,Architectural Designer,FlexJobs,"Architectural design software (e.g., AutoCAD, Revit) Building codes and regulations 3D modeling Visualization Sustainable design",JD Sports Fashion
1.61059E+15,4 to 13 Years,M.Tech,58-121,Freetown,Sierra Leone,8.4606,-11.7799,Full-Time,105598,20-11-2022,Female,Software Engineer,Frontend Developer,FlexJobs,"Proficiency in HTML, CSS, and JavaScript Experience with frontend frameworks like React, Angular, or Vue.js Responsive web design Cross-browser compatibility Version control (e.g., Git) Frontend performance optimization",Tencent Music Entertainment Group
1.07344E+15,4 to 12 Years,M.Tech,65-88,Pretoria,South Africa,-30.5595,22.9375,Temporary,130862,11-03-2022,Male,Database Administrator,Database Analyst,The Muse,Data analysis Database querying and reporting Data visualization SQL proficiency Data quality assurance,DaVita
1.53926E+15,0 to 8 Years,BBA,57-110,Bissau,Guinea-Bissau,11.8037,-15.1804,Intern,98868,09-03-2022,Female,SEO Specialist,Content SEO Strategist,The Muse,Content strategy SEO content optimization Content marketing Keyword mapping Analytics,Bajaj Holdings & Investment Limited
1.97049E+15,2 to 15 Years,B.Com,55-102,Havana,Cuba,21.5218,-77.7812,Part-Time,106910,24-11-2022,Both,Social Media Coordinator,Content Creator,FlexJobs,"Content creation (e.g., writing, editing, graphic design, video production) Content marketing Social media management SEO optimization Creative storytelling Audience engagement Analytics and reporting Adaptability Communication skills Creativity",Regeneron Pharmaceuticals
9.29753E+14,5 to 9 Years,PhD,57-126,Abu Dhabi,UAE,23.4241,53.8478,Contract,32830,13-12-2022,Male,Customer Service Representative,Live Chat Support Agent,SimplyHired,Live chat support Online customer communication Problem resolution,Royal Mail
6.91709E+14,2 to 10 Years,MCA,61-114,Oslo,Norway,60.472,8.4689,Intern,104073,28-04-2023,Both,UX/UI Designer,Interaction Designer,Jobs2Careers,Interaction design principles User behavior and psychology Wireframing and prototyping tools Animation and micro-interaction design Collaborative design processes,WHSmith
5.7229E+14,3 to 9 Years,MCA,60-84,LomÃƒÂ©,Togo,8.6195,0.8248,Full-Time,96027,13-02-2023,Male,Legal Counsel,Intellectual Property Lawyer,USAJOBS,Intellectual property law Trademark and patent law Copyright law IP portfolio management Litigation and dispute resolution,CIMIC Group
3.00953E+15,3 to 11 Years,M.Tech,61-108,City of Port Louis,Mauritius,-20.3484,57.5522,Intern,60501,18-03-2022,Female,Data Engineer,ETL Developer,Idealist,"ETL (Extract, Transform, Load) processes Data integration SQL and scripting languages",Fresenius Medical Care AG & Co. KGaA
3.03124E+15,0 to 8 Years,MBA,64-82,Libreville,Gabon,-0.8037,11.6094,Contract,78139,19-10-2022,Female,Network Security Specialist,Security Operations Center (SOC) Analyst,SimplyHired,"SOC operations Security incident response Threat detection Log analysis Security tools (e.g., IDS/IPS) Security alerts triage","Fidelity Investments, Inc."
9.0392E+12,3 to 15 Years,B.Com,62-94,Ashgabat,Turkmenistan,38.9697,59.5563,Intern,112193,02-03-2023,Female,UX/UI Designer,User Interface Designer,Indeed,"UI design principles and best practices Graphic design tools (e.g., Adobe Photoshop, Illustrator) Typography and color theory Visual design and layout Responsive design",Evolution Mining
1.44298E+15,2 to 9 Years,BCA,64-116,Male,Maldives,3.2028,73.2207,Temporary,108104,24-05-2023,Female,HR Coordinator,Recruitment Coordinator,FlexJobs,Recruitment process Candidate screening Applicant tracking systems Communication,Leidos Holdings
1.13034E+15,3 to 12 Years,MBA,59-92,San Marino,San Marino,43.9424,12.4578,Full-Time,112260,29-01-2022,Male,Systems Analyst,IT Analyst,USAJOBS,IT systems analysis Troubleshooting IT support and documentation,Walgreens Boots Alliance
2.06164E+15,4 to 8 Years,BCA,58-129,Montevideo,Uruguay,-32.5228,-55.7658,Intern,59362,23-08-2023,Male,Technical Writer,Content Writer,Jobs2Careers,Writing skills Content creation SEO knowledge Research skills Grammar and proofreading,Union Pacific
2.09633E+15,2 to 14 Years,B.Tech,55-119,Canberra,Australia,-25.2744,133.7751,Full-Time,37818,09-05-2022,Male,Market Research Analyst,Market Researcher,SimplyHired,Market research methodologies Data collection and analysis Industry knowledge,Thrivent Financial for Lutherans
9.94078E+14,1 to 15 Years,B.Tech,62-113,Basseterre,St. Kitts and Nevis,17.3578,-62.7829,Part-Time,107480,26-08-2023,Female,Landscape Architect,Environmental Designer,FlexJobs,Environmental design principles Sustainability concepts CAD and design software,Westlake
2.63919E+15,1 to 8 Years,M.Tech,63-118,Douglas,Isle of Man,54.2361,-4.5481,Part-Time,87940,23-12-2022,Both,Market Research Analyst,Market Research Coordinator,FlexJobs,Market research coordination Survey design and administration Data analysis,Westpac Banking Corporation
2.51635E+15,0 to 15 Years,BCA,59-81,Marigot,St. Martin (French part),18.0708,-63.0501,Intern,24303,06-01-2022,Female,Software Architect,Cloud Architect,Stack Overflow Jobs,"Cloud computing platforms (AWS, Azure, etc.) Cloud security Containerization (Docker, Kubernetes)",Ovintiv
1.31455E+15,5 to 14 Years,M.Tech,55-92,Gibraltar,Gibraltar,36.1408,-5.3536,Part-Time,85525,07-01-2022,Female,Systems Administrator,IT Support Specialist,SimplyHired,Technical troubleshooting Hardware and software support Customer service Problem-solving Communication,Divi's Laboratories
1.88285E+15,0 to 13 Years,BBA,56-88,Paramaribo,Suriname,3.9193,-56.0278,Part-Time,95117,23-06-2023,Female,Paralegal,Corporate Paralegal,SimplyHired,Corporate legal tasks Document drafting Compliance Corporate governance Contract management Due diligence Entity formation Communication with stakeholders Attention to detail Technology proficiency Legal software proficiency Legal research skills,Ryder System
2.66183E+15,5 to 13 Years,MBA,59-101,Tegucigalpa,Honduras,15.199,-86.2419,Intern,19888,23-08-2022,Female,Event Coordinator,Corporate Event Coordinator,Stack Overflow Jobs,Corporate event planning Corporate branding and messaging Speaker and entertainment booking Audiovisual production Team coordination Crisis management Budgeting and financial management Client communication Creativity Problem-solving Attention to detail,Costco Wholesale
2.8594E+15,5 to 15 Years,MBA,60-125,Moroni,Comoros,-11.6455,43.3333,Part-Time,62581,01-11-2022,Female,SEO Analyst,Technical SEO Analyst,ZipRecruiter,"Technical SEO Website audits SEO tools (e.g., Screaming Frog, Ahrefs) Schema markup Site speed optimization XML sitemaps Canonicalization",United States Steel
2.38267E+15,3 to 9 Years,B.Tech,60-88,Ottawa,Canada,56.1304,-106.3468,Full-Time,62190,26-07-2023,Both,Nurse Practitioner,Primary Care Nurse Practitioner,Internships.com,Nursing care Patient assessment Health promotion Medication administration Electronic health records (EHR),Owens & Minor
6.31309E+13,0 to 11 Years,M.Tech,55-115,Paramaribo,Suriname,3.9193,-56.0278,Contract,32762,08-05-2022,Female,Financial Controller,Accounting Controller,Stack Overflow Jobs,"Accounting Financial reporting Financial audits Tax compliance Accounting software (e.g., SAP, Oracle) GAAP (Generally Accepted Accounting Principles)",Legal & General Group
2.38364E+15,4 to 10 Years,BBA,55-82,Sofia,Bulgaria,42.7339,25.4858,Intern,104973,04-01-2023,Both,Supply Chain Manager,Logistics Manager,USAJOBS,Supply chain management Inventory control Transportation logistics Vendor relations Team leadership and management,Adelaide Brighton
3.03826E+15,4 to 14 Years,M.Com,64-110,ReykjavÃƒÂ­k,Iceland,64.9631,-19.0208,Full-Time,28137,06-07-2022,Both,Family Nurse Practitioner,Primary Care Provider,Stack Overflow Jobs,Medical diagnosis Patient care Medical record-keeping Communication skills Empathy and compassion,Cognizant Technology Solutions
2.91651E+15,0 to 10 Years,BBA,56-109,Nuuk,Greenland,71.7069,-42.6043,Part-Time,52363,06-06-2022,Male,Purchasing Agent,Inventory Manager,Internships.com,Inventory control Demand forecasting Supply chain management Data analysis Warehouse management,DTE Energy
2.0176E+15,1 to 8 Years,M.Tech,57-109,Nur-Sultan,Kazakhstan,48.0196,66.9237,Temporary,76006,12-03-2023,Both,Supply Chain Manager,Demand Planner,Snagajob,Demand forecasting Inventory management Data analysis Sales and operations planning (S&OP) ERP software proficiency,Avast
2.62232E+15,5 to 11 Years,BBA,63-129,"Malabo (de jure),",Equatorial Guinea,1.6508,10.2679,Full-Time,56945,13-01-2022,Both,Social Media Manager,Social Media Strategist,USAJOBS,Social media marketing strategy development Content planning and creation Social media advertising and targeting Data-driven decision-making Social media trends and platform updates,A-Mark Precious Metals
2.21235E+15,3 to 11 Years,M.Tech,65-92,Muscat,Oman,21.4735,55.9754,Contract,99341,04-09-2023,Both,UI Developer,UX/UI Designer,Stack Overflow Jobs,User experience (UX) design User interface (UI) design Wireframing and prototyping Usability testing Design tools like Sketch or Figma,Lloyds Banking Group
2.81876E+15,3 to 8 Years,BCA,64-105,Bangui,Central African Republic,6.6111,20.9394,Part-Time,70848,15-12-2022,Male,Customer Service Manager,Customer Support Manager,LinkedIn,Customer support Team leadership Customer satisfaction Issue resolution Performance metrics Training and development,Deutsche Lufthansa AG
2.2294E+15,0 to 9 Years,M.Tech,59-119,Honiara,Solomon Islands,-9.6457,160.1562,Contract,127003,20-05-2022,Male,UX/UI Designer,Interaction Designer,LinkedIn,Interaction design principles User behavior and psychology Wireframing and prototyping tools Animation and micro-interaction design Collaborative design processes,Expedia Group
2.65677E+15,1 to 14 Years,MCA,65-109,Willemstad,Curacao,12.1696,-68.99,Contract,74555,29-11-2022,Male,Email Marketing Specialist,Email Campaign Manager,FlexJobs,"Email marketing strategies Email marketing platforms (e.g., MailChimp, HubSpot) Audience segmentation A/B testing Campaign analytics Copywriting HTML/CSS for email Marketing automation Communication skills Data analysis Attention to detail",Charter Communications
2.60667E+15,3 to 15 Years,M.Com,58-117,Mbabane,Eswatini,26.5225,31.4659,Full-Time,72129,31-08-2022,Male,Civil Engineer,Water Resources Engineer,Monster,Water resources engineering Hydrology and hydraulics Environmental impact assessment Water resource modeling software Watershed management,AmerisourceBergen
5.93676E+14,1 to 8 Years,M.Com,65-83,Baku,Azerbaijan,40.1431,47.5769,Contract,63283,28-02-2023,Male,UX/UI Designer,User Experience Designer,Dice,"User-centered design principles UX/UI design tools (e.g., Sketch, Adobe XD) Wireframing and prototyping Usability testing and user research Information architecture and user flows",United States Steel
2.04627E+15,1 to 12 Years,B.Tech,56-118,Lusaka,Zambia,-13.1339,27.8493,Contract,107464,12-02-2023,Female,Network Analyst,Network Performance Analyst,Jobs2Careers,"Network performance analysis Network monitoring tools (e.g., Wireshark) Troubleshooting Capacity planning Data analysis Network protocols",Apollo Global Management
4.56051E+14,5 to 9 Years,BBA,59-100,Nouakchott,Mauritania,21.0079,-10.9408,Contract,54583,22-04-2023,Female,Data Analyst,Business Intelligence Analyst,The Muse,"Data analysis and visualization tools (e.g., Tableau, Power BI) SQL and database querying Business intelligence concepts Data modeling and reporting Strong analytical and problem-solving skills Data-driven decision-making",Tata Steel
5.47405E+14,0 to 8 Years,BBA,62-92,Nur-Sultan,Kazakhstan,48.0196,66.9237,Temporary,109025,04-06-2022,Female,Sales Representative,Account Executive,Jobs2Careers,Sales strategy and planning Account management Customer relationship management Solution selling Sales forecasting Contract negotiation Sales metrics and reporting,Lumen Technologies
1.36431E+15,3 to 13 Years,BCA,58-113,Doha,Qatar,25.3548,51.1839,Contract,36253,20-06-2023,Female,Network Engineer,Network Administrator,CareerBuilder,"Network management Troubleshooting Network security IT certifications (e.g., CCNA)",Jackson Financial
4.40705E+14,4 to 9 Years,B.Com,63-95,Conakry,Guinea,9.9456,-9.6966,Intern,31579,10-06-2023,Female,Systems Administrator,Database Administrator,FlexJobs,"Database management systems (e.g., MySQL, Oracle, SQL Server) Data security Database tuning and optimization Backup and recovery",Lumen Technologies
